{
  "type": "FeatureCollection",
  "features": [
    {"type":"Feature","properties":{"propname":"Flushing Meadows Corona Park","name":"Saturn Playground","system":"Q099-CPA-0007","gispropnum":"Q099","omppropid":"Q099-54","notes":null},"geometry":{"type":"Point","coordinates":[-73.84319091308956,40.74907610518187]}},{"type":"Feature","properties":{"propname":"City Line Park","name":"City Line Park","system":"B141-CPA-0001","gispropnum":"B141","omppropid":"B141","notes":null},"geometry":{"type":"Point","coordinates":[-73.87492274033904,40.67948179962603]}},{"type":"Feature","properties":{"propname":"Cambria Playground","name":"Cambria Playground","system":"Q339-CPA-0001","gispropnum":"Q339","omppropid":"Q339","notes":null},"geometry":{"type":"Point","coordinates":[-73.74292954626871,40.68914232976922]}},{"type":"Feature","properties":{"propname":"Bella Abzug Park","name":"Bella Abzug Park","system":"M399-CPA-0001","gispropnum":"M399","omppropid":"M399","notes":null},"geometry":{"type":"Point","coordinates":[-74.00042611511131,40.755736989701965]}},{"type":"Feature","properties":{"propname":"Marcus Garvey Park","name":"Marcus Garvey Memorial Park","system":"M058-CPA-0004","gispropnum":"M058","omppropid":"M058-07","notes":null},"geometry":{"type":"Point","coordinates":[-73.94350771178671,40.80588988029484]}},{"type":"Feature","properties":{"propname":"D'Emic Playground","name":"D'Emic Playground","system":"B210B-CPA-0001","gispropnum":"B210B","omppropid":"B210B","notes":null},"geometry":{"type":"Point","coordinates":[-74.00493948124716,40.65600884151629]}},{"type":"Feature","properties":{"propname":"Hillside Playground","name":"Hillside Playground","system":"Q352-CPA-0001","gispropnum":"Q352","omppropid":"Q352","notes":null},"geometry":{"type":"Point","coordinates":[-73.71318369801851,40.74099991061356]}},{"type":"Feature","properties":{"propname":"Al Quiñones Playground","name":"Al Quiñones Playground","system":"X179-CPA-0001","gispropnum":"X179","omppropid":"X179","notes":null},"geometry":{"type":"Point","coordinates":[-73.90168772912965,40.81515880623318]}},{"type":"Feature","properties":{"propname":"Coleman Playground","name":"Coleman Playground","system":"M019-CPA-0001","gispropnum":"M019","omppropid":"M019","notes":null},"geometry":{"type":"Point","coordinates":[-73.99341327231188,40.711214070213806]}},{"type":"Feature","properties":{"propname":"Lt. Federico Narvaez Tot Lot","name":"Lt. Federico Narvaez Tot Lot","system":"B391-CPA-0001","gispropnum":"B391","omppropid":"B391","notes":null},"geometry":{"type":"Point","coordinates":[-73.96592745903821,40.64028198752569]}},{"type":"Feature","properties":{"propname":"Burns Playground","name":"Burns Playground","system":"X232-CPA-0001","gispropnum":"X232","omppropid":"X232","notes":null},"geometry":{"type":"Point","coordinates":[-73.8365974062862,40.86325660073327]}},{"type":"Feature","properties":{"propname":"Alice Kornegay Triangle","name":"Alice Kornegay Triangle","system":"M208A-CPA-0001","gispropnum":"M208A","omppropid":"M208A","notes":null},"geometry":{"type":"Point","coordinates":[-73.93531626483525,40.80641199449841]}},{"type":"Feature","properties":{"propname":"Cpl Fischer Park","name":"Cpl Fischer Park","system":"X269-CPA-0001","gispropnum":"X269","omppropid":"X269","notes":null},"geometry":{"type":"Point","coordinates":[-73.92300312462834,40.84044670604391]}},{"type":"Feature","properties":{"propname":"Inwood Hill Park","name":"Emerson Plgd","system":"M042-CPA-0002","gispropnum":"M042","omppropid":"M042-02","notes":null},"geometry":{"type":"Point","coordinates":[-73.92225075880202,40.869681401211324]}},{"type":"Feature","properties":{"propname":"Greencroft Playground","name":"Greencroft Playground","system":"R089-CPA-0001","gispropnum":"R089","omppropid":"R089","notes":null},"geometry":{"type":"Point","coordinates":[-74.13643447621976,40.55177914719487]}},{"type":"Feature","properties":{"propname":"Caserta Playground","name":"Caserta Playground","system":"X160-CPA-0003","gispropnum":"X160","omppropid":"X160","notes":null},"geometry":{"type":"Point","coordinates":[-73.85402945292333,40.837337870925516]}},{"type":"Feature","properties":{"propname":"Sean's Place","name":"Sean's Place","system":"Q444-CPA-0001","gispropnum":"Q444","omppropid":"Q444","notes":null},"geometry":{"type":"Point","coordinates":[-73.91832746479584,40.760771962184236]}},{"type":"Feature","properties":{"propname":"Whalen Playground","name":"Whalen Playground","system":"X180-CPA-0001","gispropnum":"X180","omppropid":"X180","notes":null},"geometry":{"type":"Point","coordinates":[-73.8777936467659,40.874368255112856]}},{"type":"Feature","properties":{"propname":"ABC Playground","name":"ABC Playground","system":"M116-CPA-0001","gispropnum":"M116","omppropid":"M116","notes":null},"geometry":{"type":"Point","coordinates":[-73.98602765123032,40.72179273993805]}},{"type":"Feature","properties":{"propname":"Marcus Garvey Park","name":"Marcus Garvey Memorial Park","system":"M058-CPA-0003","gispropnum":"M058","omppropid":"M058-06","notes":null},"geometry":{"type":"Point","coordinates":[-73.9421956942832,40.80533645071983]}},{"type":"Feature","properties":{"propname":"Newport Playground","name":"Newport Playground","system":"B339-CPA-0001","gispropnum":"B339","omppropid":"B339","notes":null},"geometry":{"type":"Point","coordinates":[-73.90703217425472,40.660863283554214]}},{"type":"Feature","properties":{"propname":"Walter Gladwin Park","name":"175th Street Playground","system":"X010A-CPA-0002","gispropnum":"X010A","omppropid":"X010A-02","notes":null},"geometry":{"type":"Point","coordinates":[-73.89463550034726,40.84455217344825]}},{"type":"Feature","properties":{"propname":"Asser Levy Playground","name":"Asser Levy Playground","system":"M164-CPA-0001","gispropnum":"M164","omppropid":"M164","notes":null},"geometry":{"type":"Point","coordinates":[-73.9756154719474,40.73644242627984]}},{"type":"Feature","properties":{"propname":"La Guardia Playground","name":"La Guardia Playground","system":"B167-CPA-0001","gispropnum":"B167","omppropid":"B167","notes":null},"geometry":{"type":"Point","coordinates":[-73.95974822532209,40.71045464997997]}},{"type":"Feature","properties":{"propname":"Charlie's Place","name":"Charlie's Place","system":"B302-CPA-0001","gispropnum":"B302","omppropid":"B302","notes":null},"geometry":{"type":"Point","coordinates":[-73.94597767622773,40.699140184638836]}},{"type":"Feature","properties":{"propname":"Joseph Austin Playground","name":"Joseph Austin Playground","system":"Q391-CPA-0001","gispropnum":"Q391","omppropid":"Q391","notes":null},"geometry":{"type":"Point","coordinates":[-73.80069930084429,40.71585759067837]}},{"type":"Feature","properties":{"propname":"Equity Playground","name":"Equity Playground","system":"Q053-CPA-0001","gispropnum":"Q053","omppropid":"Q053","notes":null},"geometry":{"type":"Point","coordinates":[-73.85338669916142,40.69130279404181]}},{"type":"Feature","properties":{"propname":"Riverside Park","name":"Classic Plgd","system":"M071-CPA-0003","gispropnum":"M071","omppropid":"M071-03","notes":null},"geometry":{"type":"Point","coordinates":[-73.98639656380885,40.78341577783603]}},{"type":"Feature","properties":{"propname":"Mapes Park","name":"Mapes Park","system":"X289-CPA-0001","gispropnum":"X289","omppropid":"X289","notes":null},"geometry":{"type":"Point","coordinates":[-73.88579886457833,40.84722031385649]}},{"type":"Feature","properties":{"propname":"Galileo Playground","name":"Galileo Playground","system":"X265-CPA-0001","gispropnum":"X265","omppropid":"X265","notes":null},"geometry":{"type":"Point","coordinates":[-73.91568879191485,40.848604436783575]}},{"type":"Feature","properties":{"propname":"Highbridge Park","name":"Adventure Plgd","system":"M037-CPA-0006","gispropnum":"M037","omppropid":"M037-10","notes":null},"geometry":{"type":"Point","coordinates":[-73.93670211013853,40.83641260696556]}},{"type":"Feature","properties":{"propname":"Maple Playground","name":"Maple Playground","system":"Q211-CPA-0001","gispropnum":"Q211","omppropid":"Q211","notes":null},"geometry":{"type":"Point","coordinates":[-73.82609147075365,40.75587495012236]}},{"type":"Feature","properties":{"propname":"Washington Park","name":"Washington Park","system":"B111-CPA-0001","gispropnum":"B111","omppropid":"B111","notes":null},"geometry":{"type":"Point","coordinates":[-73.98471075022695,40.673058873916816]}},{"type":"Feature","properties":{"propname":"Penn South Playground","name":"Penn South Playground","system":"M249-CPA-0001","gispropnum":"M249","omppropid":"M249","notes":null},"geometry":{"type":"Point","coordinates":[-73.99869279640355,40.74759231128191]}},{"type":"Feature","properties":{"propname":"Neptune Playground","name":"Neptune Playground","system":"B331-CPA-0001","gispropnum":"B331","omppropid":"B331","notes":null},"geometry":{"type":"Point","coordinates":[-73.98063311857844,40.57824950631762]}},{"type":"Feature","properties":{"propname":"Central Park","name":"Pat Hoffman Friedman Plgd","system":"M010-CPA-0007","gispropnum":"M010","omppropid":"M010-143","notes":null},"geometry":{"type":"Point","coordinates":[-73.96385960241139,40.77760122807112]}},{"type":"Feature","properties":{"propname":"Gouverneur Playground","name":"Gouverneur Playground","system":"X222-CPA-0001","gispropnum":"X222","omppropid":"X222","notes":null},"geometry":{"type":"Point","coordinates":[-73.90343278934849,40.83572126259467]}},{"type":"Feature","properties":{"propname":"Howard Von Dohlen Playground","name":"Howard Von Dohlen Playground","system":"Q105-CPA-0001","gispropnum":"Q105","omppropid":"Q105","notes":null},"geometry":{"type":"Point","coordinates":[-73.8129783425626,40.69944018491245]}},{"type":"Feature","properties":{"propname":"Woodtree Playground","name":"Woodtree Playground","system":"Q332-CPA-0001","gispropnum":"Q332","omppropid":"Q332","notes":null},"geometry":{"type":"Point","coordinates":[-73.90236952948038,40.777525409759356]}},{"type":"Feature","properties":{"propname":"Rufus King Park","name":"Rufus King Park Playground","system":"Q023-CPA-0001","gispropnum":"Q023","omppropid":"Q023-01","notes":null},"geometry":{"type":"Point","coordinates":[-73.80346028334831,40.70411470096305]}},{"type":"Feature","properties":{"propname":"Adam Yauch Park","name":"Adam Yauch Park","system":"B223DA-CPA-0001","gispropnum":"B223DA","omppropid":"B223DA","notes":null},"geometry":{"type":"Point","coordinates":[-73.99914590587566,40.69209838013069]}},{"type":"Feature","properties":{"propname":"McKinley Park","name":"McKinley Park Playground","system":"B060-CPA-0001","gispropnum":"B060","omppropid":"B060-01","notes":null},"geometry":{"type":"Point","coordinates":[-74.01686079213505,40.626388932675695]}},{"type":"Feature","properties":{"propname":"Brower Park","name":"Brower Park","system":"B012-CPA-0001","gispropnum":"B012","omppropid":"B012-02","notes":null},"geometry":{"type":"Point","coordinates":[-73.94383009668397,40.67353350682641]}},{"type":"Feature","properties":{"propname":"Forest Park","name":"Giovanelli Playground","system":"Q015-CPA-0006","gispropnum":"Q015","omppropid":"Q015-09","notes":null},"geometry":{"type":"Point","coordinates":[-73.84756909211842,40.69890134940664]}},{"type":"Feature","properties":{"propname":"Luna Playground","name":"Luna Playground","system":"B296-CPA-0001","gispropnum":"B296","omppropid":"B296","notes":null},"geometry":{"type":"Point","coordinates":[-73.97840123107453,40.5760948813226]}},{"type":"Feature","properties":{"propname":"Bailey Playground","name":"Playground","system":"X150J-CPA-0001","gispropnum":"X150J","omppropid":"X150J-01","notes":null},"geometry":{"type":"Point","coordinates":[-73.90058475082088,40.88128721090624]}},{"type":"Feature","properties":{"propname":"Washington's Walk","name":"Fort #4 Playground","system":"X038-CPA-0002","gispropnum":"X038","omppropid":"X038-02","notes":null},"geometry":{"type":"Point","coordinates":[-73.90085322664974,40.87466414494145]}},{"type":"Feature","properties":{"propname":"Middle Village Playground","name":"Middle Village Playground","system":"Q101-CPA-0001","gispropnum":"Q101","omppropid":"Q101","notes":null},"geometry":{"type":"Point","coordinates":[-73.87362641184633,40.71009523994457]}},{"type":"Feature","properties":{"propname":"Captain Jacob Joseph Playground","name":"Captain Jacob Joseph Playground","system":"M122-CPA-0001","gispropnum":"M122","omppropid":"M122","notes":null},"geometry":{"type":"Point","coordinates":[-73.98981672318817,40.71358820350989]}},{"type":"Feature","properties":{"propname":"Slattery Playground","name":"Slattery Playground","system":"X085-CPA-0001","gispropnum":"X085","omppropid":"X085","notes":null},"geometry":{"type":"Point","coordinates":[-73.89848043460917,40.857305901606864]}},{"type":"Feature","properties":{"propname":"Peace Park","name":"Peace Park","system":"X148E-CPA-0001","gispropnum":"X148E","omppropid":"X148E","notes":null},"geometry":{"type":"Point","coordinates":[-73.9051714870471,40.845184206628836]}},{"type":"Feature","properties":{"propname":"St. Mary's Park","name":"St Mary's Plgd South","system":"X045-CPA-0002","gispropnum":"X045","omppropid":"X045-02","notes":null},"geometry":{"type":"Point","coordinates":[-73.91389069867053,40.81038992683133]}},{"type":"Feature","properties":{"propname":"Riverside Park","name":"Palisades Playground","system":"M072-CPA-0002","gispropnum":"M072","omppropid":"M072-03","notes":null},"geometry":{"type":"Point","coordinates":[-73.95064008788685,40.82902314767129]}},{"type":"Feature","properties":{"propname":"Junction Playground","name":"Junction Playground","system":"Q122-CPA-0001","gispropnum":"Q122","omppropid":"Q122","notes":null},"geometry":{"type":"Point","coordinates":[-73.87214304260235,40.75470692675883]}},{"type":"Feature","properties":{"propname":"Bay Terrace Playground","name":"Bay Terrace Playground","system":"Q399-CPA-0001","gispropnum":"Q399","omppropid":"Q399","notes":null},"geometry":{"type":"Point","coordinates":[-73.7775930105425,40.78237817925766]}},{"type":"Feature","properties":{"propname":"Hunter's Point South Park","name":"Hunter's Point South Playground (North)","system":"Q471-CPA-0001","gispropnum":"Q471","omppropid":"Q471-01","notes":null},"geometry":{"type":"Point","coordinates":[-73.9603984236136,40.74296030826643]}},{"type":"Feature","properties":{"propname":"Admiral Playground","name":"Admiral Playground","system":"Q338-CPA-0001","gispropnum":"Q338","omppropid":"Q338","notes":null},"geometry":{"type":"Point","coordinates":[-73.73784501981582,40.77101716863825]}},{"type":"Feature","properties":{"propname":"St. Nicholas Park","name":"St Nicholas","system":"M077-CPA-0003","gispropnum":"M077","omppropid":"M077-04","notes":null},"geometry":{"type":"Point","coordinates":[-73.9508237365231,40.81376313359209]}},{"type":"Feature","properties":{"propname":"Beaver Noll Park","name":"Beaver Noll Park","system":"B555-CPA-0001","gispropnum":"B555","omppropid":"B555","notes":null},"geometry":{"type":"Point","coordinates":[-73.93619001184217,40.699669194766365]}},{"type":"Feature","properties":{"propname":"Old Town Playground","name":"Old Town Playground","system":"R063-CPA-0001","gispropnum":"R063","omppropid":"R063","notes":null},"geometry":{"type":"Point","coordinates":[-74.08136110413317,40.59539476672305]}},{"type":"Feature","properties":{"propname":"Power Playground","name":"Power Playground","system":"B291-CPA-0001","gispropnum":"B291","omppropid":"B291","notes":null},"geometry":{"type":"Point","coordinates":[-73.92732201320209,40.61812994885795]}},{"type":"Feature","properties":{"propname":"Harris Park","name":"Harris Playground","system":"X136-CPA-0001","gispropnum":"X136","omppropid":"X136-01","notes":null},"geometry":{"type":"Point","coordinates":[-73.8923909264462,40.87512695617514]}},{"type":"Feature","properties":{"propname":"Playground One Thirty Four CXXXIV","name":"Playground One Thirty Four CXXXIV","system":"X138-CPA-0001","gispropnum":"X138","omppropid":"X138","notes":null},"geometry":{"type":"Point","coordinates":[-73.91708311838134,40.803110301814186]}},{"type":"Feature","properties":{"propname":"McKinley Playground","name":"McKinley Playground","system":"M259-CPA-0001","gispropnum":"M259","omppropid":"M259","notes":null},"geometry":{"type":"Point","coordinates":[-73.98577707071489,40.72425498528859]}},{"type":"Feature","properties":{"propname":"Austin J. McDonald Playground","name":"Austin J. McDonald Playground","system":"R034-CPA-0001","gispropnum":"R034","omppropid":"R034","notes":null},"geometry":{"type":"Point","coordinates":[-74.11525422749258,40.62960776803713]}},{"type":"Feature","properties":{"propname":"Gorman Playground","name":"Gorman Playground","system":"Q085-CPA-0001","gispropnum":"Q085","omppropid":"Q085","notes":null},"geometry":{"type":"Point","coordinates":[-73.88423696245023,40.76238428106061]}},{"type":"Feature","properties":{"propname":"Ten Eyck Plaza","name":"Ten Eyck Plaza","system":"B386-CPA-0001","gispropnum":"B386","omppropid":"B386","notes":null},"geometry":{"type":"Point","coordinates":[-73.94933840988847,40.70929963208977]}},{"type":"Feature","properties":{"propname":"Beach 59th St Playground","name":"Beach 59th St Playground","system":"Q162E-CPA-0001","gispropnum":"Q162E","omppropid":"Q162E","notes":null},"geometry":{"type":"Point","coordinates":[-73.78901676692412,40.58909745681238]}},{"type":"Feature","properties":{"propname":"Moore Homestead Playground","name":"Moore Homestead Playground","system":"Q361-CPA-0001","gispropnum":"Q361","omppropid":"Q361","notes":null},"geometry":{"type":"Point","coordinates":[-73.88239704480374,40.74214194002499]}},{"type":"Feature","properties":{"propname":"Saul Weprin Playground","name":"Saul Weprin Playground","system":"Q293-CPA-0003","gispropnum":"Q293","omppropid":"Q293","notes":null},"geometry":{"type":"Point","coordinates":[-73.77641463799833,40.74806445256278]}},{"type":"Feature","properties":{"propname":"Crotona Park","name":"Martin Van Buren Plgd","system":"X010-CPA-0007","gispropnum":"X010","omppropid":"X010-08","notes":null},"geometry":{"type":"Point","coordinates":[-73.89590027898903,40.83532251863882]}},{"type":"Feature","properties":{"propname":"Albert J. Parham Playground","name":"Albert J. Parham Playground","system":"B253-CPA-0001","gispropnum":"B253","omppropid":"B253","notes":null},"geometry":{"type":"Point","coordinates":[-73.97077326098899,40.690372852112944]}},{"type":"Feature","properties":{"propname":"Bowne Playground","name":"Bowne Playground","system":"Q308-CPA-0001","gispropnum":"Q308","omppropid":"Q308","notes":null},"geometry":{"type":"Point","coordinates":[-73.8248657208206,40.758185324066005]}},{"type":"Feature","properties":{"propname":"Astoria Heights Playground","name":"Astoria Heights Playground","system":"Q014-CPA-0001","gispropnum":"Q014","omppropid":"Q014","notes":null},"geometry":{"type":"Point","coordinates":[-73.9117425238089,40.76042085285033]}},{"type":"Feature","properties":{"propname":"Eastchester Playground","name":"Eastchester Playground","system":"X156-CPA-0001","gispropnum":"X156","omppropid":"X156","notes":null},"geometry":{"type":"Point","coordinates":[-73.85280845813486,40.869790443416804]}},{"type":"Feature","properties":{"propname":"Sperandeo Brothers Playground","name":"Sperandeo Brothers Playground","system":"B163-CPA-0001","gispropnum":"B163","omppropid":"B163","notes":null},"geometry":{"type":"Point","coordinates":[-73.88445649394842,40.677098750828904]}},{"type":"Feature","properties":{"propname":"Spirit Playground","name":"Spirit Playground","system":"Q429-CPA-0001","gispropnum":"Q429","omppropid":"Q429","notes":null},"geometry":{"type":"Point","coordinates":[-73.94148485956816,40.76121868045725]}},{"type":"Feature","properties":{"propname":"Gerard P. Dugan Playground","name":"Gerard P. Dugan Playground","system":"R026-CPA-0001","gispropnum":"R026","omppropid":"R026","notes":null},"geometry":{"type":"Point","coordinates":[-74.1108466927963,40.561430823665305]}},{"type":"Feature","properties":{"propname":"Bronx River Parkway","name":"Parque De Los Ninos","system":"X004-CPA-0003","gispropnum":"X004","omppropid":"X004-03","notes":null},"geometry":{"type":"Point","coordinates":[-73.87356152792863,40.82802339038336]}},{"type":"Feature","properties":{"propname":"Tiger Playground","name":"Tiger Playground","system":"B307-CPA-0001","gispropnum":"B307","omppropid":"B307","notes":null},"geometry":{"type":"Point","coordinates":[-73.91097890609622,40.68825194367367]}},{"type":"Feature","properties":{"propname":"Challenge Playground","name":"Challenge Playground","system":"Q346-CPA-0001","gispropnum":"Q346","omppropid":"Q346","notes":null},"geometry":{"type":"Point","coordinates":[-73.72796350713423,40.75662295789983]}},{"type":"Feature","properties":{"propname":"Herman Dolgon Playground","name":"Herman Dolgon Playground","system":"B235-CPA-0001","gispropnum":"B235","omppropid":"B235","notes":null},"geometry":{"type":"Point","coordinates":[-73.94000255100032,40.59809205674276]}},{"type":"Feature","properties":{"propname":"Audubon Playground","name":"Audubon Playground","system":"M240-CPA-0001","gispropnum":"M240","omppropid":"M240","notes":null},"geometry":{"type":"Point","coordinates":[-73.93813259640277,40.841610501638584]}},{"type":"Feature","properties":{"propname":"Playground One Forty","name":"Playground One Forty","system":"Q220E-CPA-0001","gispropnum":"Q220E","omppropid":"Q220E","notes":null},"geometry":{"type":"Point","coordinates":[-73.80125408676967,40.675141887471526]}},{"type":"Feature","properties":{"propname":"Madison Square Park","name":"Police Officer Moira Ann Smith Playground","system":"M052-CPA-0001","gispropnum":"M052","omppropid":"M052-02","notes":null},"geometry":{"type":"Point","coordinates":[-73.98732004122415,40.742505533173784]}},{"type":"Feature","properties":{"propname":"Jacob H. Schiff Playground","name":"Jacob H. Schiff Playground","system":"M223-CPA-0001","gispropnum":"M223","omppropid":"M223","notes":null},"geometry":{"type":"Point","coordinates":[-73.95202343987626,40.82051088443651]}},{"type":"Feature","properties":{"propname":"Ruppert Park","name":"Ruppert Park","system":"M294-CPA-0001","gispropnum":"M294","omppropid":"M294","notes":null},"geometry":{"type":"Point","coordinates":[-73.9501314096908,40.78095809127755]}},{"type":"Feature","properties":{"propname":"Cardozo Playground","name":"Cardozo Playground","system":"Q382-CPA-0001","gispropnum":"Q382","omppropid":"Q382","notes":null},"geometry":{"type":"Point","coordinates":[-73.78656810980169,40.59323900588211]}},{"type":"Feature","properties":{"propname":"Kissena Corridor Park","name":"Captain Mario Fajardo Park","system":"Q300-CPA-0003","gispropnum":"Q300","omppropid":"Q300-04","notes":null},"geometry":{"type":"Point","coordinates":[-73.81463577664236,40.74349145354853]}},{"type":"Feature","properties":{"propname":"CPL. Thompson Park","name":"Corporal Thompson Playground","system":"R109-CPA-0001","gispropnum":"R109","omppropid":"R109-01","notes":null},"geometry":{"type":"Point","coordinates":[-74.11803173730672,40.638921484343676]}},{"type":"Feature","properties":{"propname":"Ennis Playground","name":"Ennis Playground","system":"B095-CPA-0001","gispropnum":"B095","omppropid":"B095","notes":null},"geometry":{"type":"Point","coordinates":[-73.99381983436143,40.67074024029471]}},{"type":"Feature","properties":{"propname":"Jesse Owens Playground","name":"Jesse Owens Playground","system":"B269-CPA-0001","gispropnum":"B269","omppropid":"B269","notes":null},"geometry":{"type":"Point","coordinates":[-73.9323933892284,40.691372462858574]}},{"type":"Feature","properties":{"propname":"William Sheridan Playground","name":"William Sheridan Playground","system":"B124-CPA-0001","gispropnum":"B124","omppropid":"B124","notes":null},"geometry":{"type":"Point","coordinates":[-73.96416962382155,40.715228249679726]}},{"type":"Feature","properties":{"propname":"Flynn Playground","name":"Flynn Playground","system":"X146-CPA-0001","gispropnum":"X146","omppropid":"X146","notes":null},"geometry":{"type":"Point","coordinates":[-73.91193278928385,40.82104461493893]}},{"type":"Feature","properties":{"propname":"Kelly Park Playground","name":"Kelly Park Playground","system":"B051-CPA-0001","gispropnum":"B051","omppropid":"B051","notes":null},"geometry":{"type":"Point","coordinates":[-73.95764201187923,40.60417856258738]}},{"type":"Feature","properties":{"propname":"Commodore Barry Park","name":"Commodore Barry Park Playground","system":"B021-CPA-0001","gispropnum":"B021","omppropid":"B021-01","notes":null},"geometry":{"type":"Point","coordinates":[-73.97881767505041,40.69781162069512]}},{"type":"Feature","properties":{"propname":"Eleanor Roosevelt Playground","name":"Eleanor Roosevelt Playground","system":"B359-CPA-0001","gispropnum":"B359","omppropid":"B359","notes":null},"geometry":{"type":"Point","coordinates":[-73.93557673802489,40.692766814108815]}},{"type":"Feature","properties":{"propname":"Jackie Robinson Park","name":"Plgd One Fifty Two CLII","system":"M014-CPA-0001","gispropnum":"M014","omppropid":"M014-02","notes":null},"geometry":{"type":"Point","coordinates":[-73.9398709641419,40.827933913617315]}},{"type":"Feature","properties":{"propname":"Owl's Head Park","name":"Owls Head Park","system":"B066-CPA-0002","gispropnum":"B066","omppropid":"B066-02","notes":null},"geometry":{"type":"Point","coordinates":[-74.03083228515841,40.63940934036869]}},{"type":"Feature","properties":{"propname":"Seeley Park","name":"Seeley Park","system":"B255J-CPA-0001","gispropnum":"B255J","omppropid":"B255J","notes":null},"geometry":{"type":"Point","coordinates":[-73.97783981402505,40.65338243276341]}},{"type":"Feature","properties":{"propname":"Nautilus Playground","name":"Nautilus Playground","system":"B268-CPA-0001","gispropnum":"B268","omppropid":"B268","notes":null},"geometry":{"type":"Point","coordinates":[-73.99626806079564,40.57172489282469]}},{"type":"Feature","properties":{"propname":"Riverside Park South","name":"Big River Playground","system":"M353-CPA-0002","gispropnum":"M353","omppropid":"M353-02","notes":null},"geometry":{"type":"Point","coordinates":[-73.98929964405652,40.777363858668295]}},{"type":"Feature","properties":{"propname":"Faber Pool and Park","name":"Faber Pool and Park","system":"R008-CPA-0001","gispropnum":"R008","omppropid":"R008","notes":null},"geometry":{"type":"Point","coordinates":[-74.1357205693264,40.64100195970677]}},{"type":"Feature","properties":{"propname":"Noble Playground","name":"Noble Playground","system":"X123-CPA-0001","gispropnum":"X123","omppropid":"X123","notes":null},"geometry":{"type":"Point","coordinates":[-73.87225180131853,40.83730964794831]}},{"type":"Feature","properties":{"propname":"Dry Dock Playground","name":"Dry Dock Playground","system":"M270-CPA-0001","gispropnum":"M270","omppropid":"M270","notes":null},"geometry":{"type":"Point","coordinates":[-73.9754554315291,40.725460810418895]}},{"type":"Feature","properties":{"propname":"Lawrence Virgilio Playground","name":"Lawrence Virgilio Playground","system":"Q031-CPA-0001","gispropnum":"Q031","omppropid":"Q031","notes":null},"geometry":{"type":"Point","coordinates":[-73.91074721996347,40.74747006862448]}},{"type":"Feature","properties":{"propname":"Marc And Jason's Playground","name":"Marc And Jason's Playground","system":"B284-CPA-0001","gispropnum":"B284","omppropid":"B284","notes":null},"geometry":{"type":"Point","coordinates":[-73.94952552458734,40.663519853298524]}},{"type":"Feature","properties":{"propname":"Central Park","name":"110th St Plgd","system":"M010-CPA-0019","gispropnum":"M010","omppropid":"M010-241","notes":null},"geometry":{"type":"Point","coordinates":[-73.95710983360905,40.79978157923536]}},{"type":"Feature","properties":{"propname":"Augustus St. Gaudens Playground","name":"Augustus St. Gaudens Playground","system":"M226-CPA-0001","gispropnum":"M226","omppropid":"M226","notes":null},"geometry":{"type":"Point","coordinates":[-73.98215310275098,40.73555002627545]}},{"type":"Feature","properties":{"propname":"Al Stabile Playground","name":"Al Stabile Playground","system":"Q285-CPA-0001","gispropnum":"Q285","omppropid":"Q285","notes":null},"geometry":{"type":"Point","coordinates":[-73.83553939019248,40.677276869844]}},{"type":"Feature","properties":{"propname":"Ampere Playground","name":"Ampere Playground","system":"Q378-CPA-0001","gispropnum":"Q378","omppropid":"Q378","notes":null},"geometry":{"type":"Point","coordinates":[-73.85678138231678,40.68157551306545]}},{"type":"Feature","properties":{"propname":"Van Nest Park","name":"Van Nest Park","system":"X093-CPA-0001","gispropnum":"X093","omppropid":"X093","notes":null},"geometry":{"type":"Point","coordinates":[-73.8657788645783,40.843345253243584]}},{"type":"Feature","properties":{"propname":"Pat Williams Playground","name":"Pat Williams Playground","system":"Q133-CPA-0001","gispropnum":"Q133","omppropid":"Q133","notes":null},"geometry":{"type":"Point","coordinates":[-73.7295180682879,40.713035339495434]}},{"type":"Feature","properties":{"propname":"Frederick B. Judge Playground","name":"Frederick B. Judge Playground","system":"Q119-CPA-0001","gispropnum":"Q119","omppropid":"Q119","notes":null},"geometry":{"type":"Point","coordinates":[-73.80812297601494,40.683413706939476]}},{"type":"Feature","properties":{"propname":"Central Park","name":"Billy Johnson Plgd","system":"M010-CPA-0002","gispropnum":"M010","omppropid":"M010-048","notes":null},"geometry":{"type":"Point","coordinates":[-73.96982953707887,40.76945758698866]}},{"type":"Feature","properties":{"propname":"Haffen Park","name":"Haffen Park Playground","system":"X196-CPA-0001","gispropnum":"X196","omppropid":"X196-02","notes":null},"geometry":{"type":"Point","coordinates":[-73.83885065421208,40.873344068274456]}},{"type":"Feature","properties":{"propname":"Jennifer's Playground","name":"Jennifer's Playground","system":"R114-CPA-0001","gispropnum":"R114","omppropid":"R114","notes":null},"geometry":{"type":"Point","coordinates":[-74.16312967832192,40.62005337631781]}},{"type":"Feature","properties":{"propname":"Jacob Joffe Fields","name":"Jacob Joffe Fields","system":"B324-CPA-0001","gispropnum":"B324","omppropid":"B324","notes":null},"geometry":{"type":"Point","coordinates":[-73.91936146938346,40.6253376022199]}},{"type":"Feature","properties":{"propname":"Ehrenreich-Austin Playground","name":"Ehrenreich-Austin Playground","system":"Q304-CPA-0001","gispropnum":"Q304","omppropid":"Q304","notes":null},"geometry":{"type":"Point","coordinates":[-73.83685595746994,40.715517662967684]}},{"type":"Feature","properties":{"propname":"Hermon A. MacNeil Park","name":"MacNeil Playground","system":"Q009-CPA-0001","gispropnum":"Q009","omppropid":"Q009-01","notes":null},"geometry":{"type":"Point","coordinates":[-73.85145431979485,40.793380845510214]}},{"type":"Feature","properties":{"propname":"Haggerty Park","name":"Haggerty Park","system":"Q359-CPA-0001","gispropnum":"Q359","omppropid":"Q359","notes":null},"geometry":{"type":"Point","coordinates":[-73.75769846901133,40.71296515334631]}},{"type":"Feature","properties":{"propname":"Flushing Meadows Corona Park","name":"Lawrence Playground","system":"Q099-CPA-0004","gispropnum":"Q099","omppropid":"Q099-17","notes":null},"geometry":{"type":"Point","coordinates":[-73.83367720892402,40.74868612490229]}},{"type":"Feature","properties":{"propname":"Yellowstone Park","name":"Yellowstone Park","system":"Q425-CPA-0001","gispropnum":"Q425","omppropid":"Q425","notes":null},"geometry":{"type":"Point","coordinates":[-73.84753966447965,40.72627729916554]}},{"type":"Feature","properties":{"propname":"Hallets Cove Playground","name":"Hallets Point Playground (area B)","system":"Q226-CPA-0002","gispropnum":"Q226","omppropid":"Q226-02","notes":null},"geometry":{"type":"Point","coordinates":[-73.93761989435164,40.7732096941919]}},{"type":"Feature","properties":{"propname":"Highbridge Park","name":"Quisqueya Plgd","system":"M037-CPA-0001","gispropnum":"M037","omppropid":"M037-03","notes":null},"geometry":{"type":"Point","coordinates":[-73.93104830659034,40.847246415852084]}},{"type":"Feature","properties":{"propname":"Tompkins Square Park","name":"Tompkins Square Park","system":"M088-CPA-0002","gispropnum":"M088","omppropid":"M088-03","notes":null},"geometry":{"type":"Point","coordinates":[-73.9811579863597,40.72567524134843]}},{"type":"Feature","properties":{"propname":"Garibaldi Playground","name":"Garibaldi Playground","system":"B158-CPA-0001","gispropnum":"B158","omppropid":"B158","notes":null},"geometry":{"type":"Point","coordinates":[-74.00009565109487,40.60896259077222]}},{"type":"Feature","properties":{"propname":"Great Kills Park","name":"Corporal Allan F. Kivlehan Park","system":"R016-CPA-0001","gispropnum":"R016","omppropid":"R016-01","notes":null},"geometry":{"type":"Point","coordinates":[-74.0975816474289,40.56410509457035]}},{"type":"Feature","properties":{"propname":"Hines Park","name":"Hines Park","system":"X026-CPA-0001","gispropnum":"X026","omppropid":"X026","notes":null},"geometry":{"type":"Point","coordinates":[-73.90565538587997,40.82860204840064]}},{"type":"Feature","properties":{"propname":"Bronx Park","name":"French Charley Plgd","system":"X002-CPA-0005","gispropnum":"X002","omppropid":"X002-08","notes":null},"geometry":{"type":"Point","coordinates":[-73.87626148087271,40.869926390353825]}},{"type":"Feature","properties":{"propname":"Manhattan Beach Park","name":"Pat Parlato Plgd","system":"B251-CPA-0001","gispropnum":"B251","omppropid":"B251-04","notes":null},"geometry":{"type":"Point","coordinates":[-73.9464729173734,40.57689527855257]}},{"type":"Feature","properties":{"propname":"Nelson Playground","name":"Nelson Playground","system":"X168-CPA-0001","gispropnum":"X168","omppropid":"X168","notes":null},"geometry":{"type":"Point","coordinates":[-73.92685155057944,40.83479400499183]}},{"type":"Feature","properties":{"propname":"Josephine Caminiti Playground","name":"Josephine Caminiti Playground","system":"Q046-CPA-0001","gispropnum":"Q046","omppropid":"Q046","notes":null},"geometry":{"type":"Point","coordinates":[-73.8615337558838,40.74391247131979]}},{"type":"Feature","properties":{"propname":"Astoria Park","name":"Charybdis Playground","system":"Q004-CPA-0001","gispropnum":"Q004","omppropid":"Q004-01","notes":null},"geometry":{"type":"Point","coordinates":[-73.92228305136918,40.77950724146056]}},{"type":"Feature","properties":{"propname":"Clawson Playground","name":"Clawson Playground","system":"R072-CPA-0001","gispropnum":"R072","omppropid":"R072","notes":null},"geometry":{"type":"Point","coordinates":[-74.12383653393378,40.56060720804926]}},{"type":"Feature","properties":{"propname":"Sara D. Roosevelt Park","name":"Rivington St Plgd","system":"M105-CPA-0002","gispropnum":"M105","omppropid":"M105-04","notes":null},"geometry":{"type":"Point","coordinates":[-73.99173456111387,40.721357319666005]}},{"type":"Feature","properties":{"propname":"Bayview Playground","name":"Bayview Playground","system":"B274-CPA-0001","gispropnum":"B274","omppropid":"B274","notes":null},"geometry":{"type":"Point","coordinates":[-73.88690985006569,40.63491240791889]}},{"type":"Feature","properties":{"propname":"Herbert Von King Park","name":"Herbert Von King Park","system":"B088-CPA-0001","gispropnum":"B088","omppropid":"B088-02","notes":null},"geometry":{"type":"Point","coordinates":[-73.94588134551502,40.689524505605135]}},{"type":"Feature","properties":{"propname":"Merriam Playground","name":"Merriam Plgd (Upper)","system":"X153-CPA-0001","gispropnum":"X153","omppropid":"X153-01","notes":null},"geometry":{"type":"Point","coordinates":[-73.92689829258258,40.84052423108259]}},{"type":"Feature","properties":{"propname":"Dr. Ronald E. McNair Playground","name":"Dr. Ronald E. McNair Playground","system":"M285-CPA-0001","gispropnum":"M285","omppropid":"M285","notes":null},"geometry":{"type":"Point","coordinates":[-73.9380882649276,40.802533045848485]}},{"type":"Feature","properties":{"propname":"Kaiser Park","name":"Leon S Kaiser Playground","system":"B129-CPA-0001","gispropnum":"B129","omppropid":"B129-01","notes":null},"geometry":{"type":"Point","coordinates":[-73.99535283265692,40.578196437703795]}},{"type":"Feature","properties":{"propname":"Tecumseh Playground","name":"Tecumseh Playground","system":"M219-CPA-0001","gispropnum":"M219","omppropid":"M219","notes":null},"geometry":{"type":"Point","coordinates":[-73.97851850330647,40.78180527883651]}},{"type":"Feature","properties":{"propname":"Harold Schneiderman Playground","name":"Harold Schneiderman Playground","system":"Q408-CPA-0001","gispropnum":"Q408","omppropid":"Q408","notes":null},"geometry":{"type":"Point","coordinates":[-73.85042692355407,40.66500264500151]}},{"type":"Feature","properties":{"propname":"Sternberg Park","name":"Sternberg Park","system":"B055-CPA-0001","gispropnum":"B055","omppropid":"B055","notes":null},"geometry":{"type":"Point","coordinates":[-73.94724412500794,40.70622664378182]}},{"type":"Feature","properties":{"propname":"FDNY-EMT Yadira Arroyo Playground","name":"FDNY-EMT Yadira Arroyo Playground","system":"X205-CPA-0001","gispropnum":"X205","omppropid":"X205","notes":null},"geometry":{"type":"Point","coordinates":[-73.85796878774133,40.82839831191779]}},{"type":"Feature","properties":{"propname":"Bridge Playground","name":"Bridge Playground","system":"X148A3-CPA-0001","gispropnum":"X148A3","omppropid":"X148A3","notes":null},"geometry":{"type":"Point","coordinates":[-73.92412118410715,40.84431258112753]}},{"type":"Feature","properties":{"propname":"Sgt. William Dougherty Playground","name":"Sgt. William Dougherty Playground","system":"B096-CPA-0001","gispropnum":"B096","omppropid":"B096","notes":null},"geometry":{"type":"Point","coordinates":[-73.93703762328362,40.72363820376453]}},{"type":"Feature","properties":{"propname":"Curtis Playground","name":"Curtis Playground","system":"B352-CPA-0001","gispropnum":"B352","omppropid":"B352","notes":null},"geometry":{"type":"Point","coordinates":[-73.91741522726464,40.64095208228484]}},{"type":"Feature","properties":{"propname":"Bronx River Parkway","name":"Metcalf Playground","system":"X004-CPA-0004","gispropnum":"X004","omppropid":"X004-04","notes":null},"geometry":{"type":"Point","coordinates":[-73.87355901967106,40.834681676906555]}},{"type":"Feature","properties":{"propname":"Sheltering Arms Playground","name":"Sheltering Arms Playground","system":"M190-CPA-0003","gispropnum":"M190","omppropid":"M190","notes":null},"geometry":{"type":"Point","coordinates":[-73.95552003663774,40.815029750679315]}},{"type":"Feature","properties":{"propname":"Van Voorhees Playground","name":"Van Voorhees Playground","system":"B050-CPA-0001","gispropnum":"B050","omppropid":"B050","notes":null},"geometry":{"type":"Point","coordinates":[-73.99932162491177,40.690311444409275]}},{"type":"Feature","properties":{"propname":"Pelham Bay Park","name":"Playground For All Children","system":"X039-CPA-0001","gispropnum":"X039","omppropid":"X039-01","notes":null},"geometry":{"type":"Point","coordinates":[-73.82563747867847,40.84823663193376]}},{"type":"Feature","properties":{"propname":"East River Playground","name":"East River Playground","system":"M258-CPA-0001","gispropnum":"M258","omppropid":"M258","notes":null},"geometry":{"type":"Point","coordinates":[-73.93819831896435,40.78930543740661]}},{"type":"Feature","properties":{"propname":"Houston Playground","name":"Houston Playground","system":"B363-CPA-0001","gispropnum":"B363","omppropid":"B363","notes":null},"geometry":{"type":"Point","coordinates":[-73.90507075847907,40.67220442103479]}},{"type":"Feature","properties":{"propname":"River Avenue Parks","name":"River Avenue Parks","system":"X348-CPA-0001","gispropnum":"X348","omppropid":"X348-01","notes":null},"geometry":{"type":"Point","coordinates":[-73.92676208697932,40.82582641492435]}},{"type":"Feature","properties":{"propname":"Old Hickory Playground","name":"Old Hickory Playground","system":"QT06-CPA-0001","gispropnum":"QT06","omppropid":"QT06","notes":null},"geometry":{"type":"Point","coordinates":[-73.95365189719642,40.74173466032744]}},{"type":"Feature","properties":{"propname":"Roebling Playground","name":"Roebling Playground","system":"B264-CPA-0001","gispropnum":"B264","omppropid":"B264","notes":null},"geometry":{"type":"Point","coordinates":[-73.961724859373,40.70634889354179]}},{"type":"Feature","properties":{"propname":"Harry Chapin Playground","name":"Harry Chapin Playground","system":"B223H-CPA-0001","gispropnum":"B223H","omppropid":"B223H","notes":null},"geometry":{"type":"Point","coordinates":[-73.99492423008458,40.70066437400593]}},{"type":"Feature","properties":{"propname":"Mount Hope Garden","name":"Mount Hope Garden","system":"X274-CPA-0001","gispropnum":"X274","omppropid":"X274","notes":null},"geometry":{"type":"Point","coordinates":[-73.90535931324727,40.852558310109764]}},{"type":"Feature","properties":{"propname":"Surf Playground","name":"Surf Playground","system":"B315-CPA-0001","gispropnum":"B315","omppropid":"B315","notes":null},"geometry":{"type":"Point","coordinates":[-73.99235367289621,40.573717067502706]}},{"type":"Feature","properties":{"propname":"Saw Mill Playground","name":"Saw Mill Playground","system":"X238-CPA-0001","gispropnum":"X238","omppropid":"X238","notes":null},"geometry":{"type":"Point","coordinates":[-73.9193732946417,40.80891310561024]}},{"type":"Feature","properties":{"propname":"Fairview Park","name":"Fairview Park Zone 1","system":"R153-CPA-0001","gispropnum":"R153","omppropid":"R153-ZN01","notes":null},"geometry":{"type":"Point","coordinates":[-74.23381648906286,40.53083332984611]}},{"type":"Feature","properties":{"propname":"Baisley Pond Park","name":"Baisley Park South","system":"Q005-CPA-0004","gispropnum":"Q005","omppropid":"Q005-11","notes":null},"geometry":{"type":"Point","coordinates":[-73.78841670261933,40.669000647444115]}},{"type":"Feature","properties":{"propname":"Rockaway Community Park","name":"Rockaway Community Playground","system":"Q371-CPA-0001","gispropnum":"Q371","omppropid":"Q371-01","notes":null},"geometry":{"type":"Point","coordinates":[-73.78424386898213,40.5984254219086]}},{"type":"Feature","properties":{"propname":"Sol Lain Plgd","name":"Sol Lain Plgd","system":"M235-CPA-0001","gispropnum":"M235","omppropid":"M235","notes":null},"geometry":{"type":"Point","coordinates":[-73.98390589478656,40.71424501890993]}},{"type":"Feature","properties":{"propname":"The Battery","name":"Battery Park Playground","system":"M005-CPA-0001","gispropnum":"M005","omppropid":"M005-02","notes":null},"geometry":{"type":"Point","coordinates":[-74.01439215405048,40.701824548684286]}},{"type":"Feature","properties":{"propname":"Pulaski Park","name":"Pulaski Park","system":"X041-CPA-0001","gispropnum":"X041","omppropid":"X041","notes":null},"geometry":{"type":"Point","coordinates":[-73.9245656858796,40.80524231348738]}},{"type":"Feature","properties":{"propname":"De Hostos Playground","name":"De Hostos Playground","system":"B358-CPA-0001","gispropnum":"B358","omppropid":"B358","notes":null},"geometry":{"type":"Point","coordinates":[-73.94931898167238,40.70268116170354]}},{"type":"Feature","properties":{"propname":"Van Cortlandt Park","name":"Woodlawn Plgd","system":"X092-CPA-0002","gispropnum":"X092","omppropid":"X092-06","notes":null},"geometry":{"type":"Point","coordinates":[-73.87236084263492,40.900056944352166]}},{"type":"Feature","properties":{"propname":"Tiffany Playground","name":"Tiffany Playground","system":"X190-CPA-0001","gispropnum":"X190","omppropid":"X190","notes":null},"geometry":{"type":"Point","coordinates":[-73.89437491088549,40.824840000218494]}},{"type":"Feature","properties":{"propname":"Blue Playground","name":"Blue Playground","system":"B223PE-CPA-0001","gispropnum":"B223PE","omppropid":"B223PE","notes":null},"geometry":{"type":"Point","coordinates":[-73.95497027887323,40.7111016849752]}},{"type":"Feature","properties":{"propname":"Fiorello La Guardia Park","name":"Fiorello La Guardia Park","system":"M395-CPA-0001","gispropnum":"M395","omppropid":"M395","notes":null},"geometry":{"type":"Point","coordinates":[-73.99827026995392,40.72859963917524]}},{"type":"Feature","properties":{"propname":"Twenty-Four Sycamores Park","name":"Twenty-Four Sycamores Park","system":"M108Q-CPA-0001","gispropnum":"M108Q","omppropid":"M108Q","notes":null},"geometry":{"type":"Point","coordinates":[-73.95866697247129,40.759456396566314]}},{"type":"Feature","properties":{"propname":"Mount Hope Playground","name":"Mount Hope Playground","system":"X257-CPA-0001","gispropnum":"X257","omppropid":"X257","notes":null},"geometry":{"type":"Point","coordinates":[-73.90943943758931,40.85029833358395]}},{"type":"Feature","properties":{"propname":"Blood Root Valley","name":"Greenbelt Recreation Center Playground","system":"R129-CPA-0001","gispropnum":"R129","omppropid":"R129-01","notes":null},"geometry":{"type":"Point","coordinates":[-74.13891582393197,40.592397453104944]}},{"type":"Feature","properties":{"propname":"Mary O'Connor Playground","name":"Mary O'Connor Playground","system":"M203D-CPA-0001","gispropnum":"M203D","omppropid":"M203D","notes":null},"geometry":{"type":"Point","coordinates":[-73.97079251674238,40.74954580533345]}},{"type":"Feature","properties":{"propname":"Courtney Callender Playground","name":"Courtney Callender Playground","system":"M155-CPA-0001","gispropnum":"M155","omppropid":"M155","notes":null},"geometry":{"type":"Point","coordinates":[-73.94011420818953,40.810044105078724]}},{"type":"Feature","properties":{"propname":"Flushing Meadows Corona Park","name":"Buzz Vollmer Playground","system":"Q099-CPA-0008","gispropnum":"Q099","omppropid":"Q099-55","notes":null},"geometry":{"type":"Point","coordinates":[-73.84155212071194,40.74996947828301]}},{"type":"Feature","properties":{"propname":"Ethan Allen Playground","name":"Ethan Allen Playground","system":"B345-CPA-0001","gispropnum":"B345","omppropid":"B345","notes":null},"geometry":{"type":"Point","coordinates":[-73.88693060371581,40.655703673604314]}},{"type":"Feature","properties":{"propname":"Poseidon Playground","name":"Poseidon Playground","system":"B169B-CPA-0001","gispropnum":"B169B","omppropid":"B169B","notes":null},"geometry":{"type":"Point","coordinates":[-73.9920830699082,40.572450026031426]}},{"type":"Feature","properties":{"propname":"Inwood Hill Park","name":"Payson Plgd","system":"M042-CPA-0001","gispropnum":"M042","omppropid":"M042-01","notes":null},"geometry":{"type":"Point","coordinates":[-73.92878327201876,40.86722178159016]}},{"type":"Feature","properties":{"propname":"Central Park","name":"Rudin Plgd","system":"M010-CPA-0015","gispropnum":"M010","omppropid":"M010-193","notes":null},"geometry":{"type":"Point","coordinates":[-73.96398798938449,40.79184849254856]}},{"type":"Feature","properties":{"propname":"Alley Park","name":"Alley Park","system":"Q356-CPA-0001","gispropnum":"Q356","omppropid":"Q356","notes":null},"geometry":{"type":"Point","coordinates":[-73.74446165845545,40.74739918753547]}},{"type":"Feature","properties":{"propname":"Half-Nelson Playground","name":"Half-Nelson Playground","system":"X295-CPA-0001","gispropnum":"X295","omppropid":"X295","notes":null},"geometry":{"type":"Point","coordinates":[-73.91929813878345,40.84678823477933]}},{"type":"Feature","properties":{"propname":"Highbridge Park","name":"Ft George Plgd","system":"M037-CPA-0005","gispropnum":"M037","omppropid":"M037-09","notes":null},"geometry":{"type":"Point","coordinates":[-73.92593084420136,40.858420301582896]}},{"type":"Feature","properties":{"propname":"Gilbert Ramirez Park","name":"Gilbert Ramirez Park","system":"B132-CPA-0001","gispropnum":"B132","omppropid":"B132","notes":null},"geometry":{"type":"Point","coordinates":[-73.93455025801883,40.705958950671615]}},{"type":"Feature","properties":{"propname":"Breukelen Ballfields","name":"Breukelen Plgd","system":"B247-CPA-0001","gispropnum":"B247","omppropid":"B247-01","notes":null},"geometry":{"type":"Point","coordinates":[-73.89362242961609,40.65404045596214]}},{"type":"Feature","properties":{"propname":"Dawson Playground","name":"Dawson Playground","system":"X164-CPA-0001","gispropnum":"X164","omppropid":"X164","notes":null},"geometry":{"type":"Point","coordinates":[-73.89830781869479,40.819694320476785]}},{"type":"Feature","properties":{"propname":"Vidalia Park","name":"Vidalia Park","system":"X266-CPA-0001","gispropnum":"X266","omppropid":"X266","notes":null},"geometry":{"type":"Point","coordinates":[-73.88143061078283,40.84386494362585]}},{"type":"Feature","properties":{"propname":"Hart Playground","name":"Hart Playground","system":"Q419-CPA-0001","gispropnum":"Q419","omppropid":"Q419","notes":null},"geometry":{"type":"Point","coordinates":[-73.81895940493078,40.77402889775242]}},{"type":"Feature","properties":{"propname":"Lafayette Playground","name":"Lafayette Playground","system":"B106B-CPA-0001","gispropnum":"B106B","omppropid":"B106B","notes":null},"geometry":{"type":"Point","coordinates":[-73.98528984475071,40.594508829688486]}},{"type":"Feature","properties":{"propname":"Abigail Playground","name":"Abigail Playground","system":"X216-CPA-0001","gispropnum":"X216","omppropid":"X216","notes":null},"geometry":{"type":"Point","coordinates":[-73.90464194416295,40.81731386910402]}},{"type":"Feature","properties":{"propname":"Crotona Park","name":"Hill & Dale Playground","system":"X010-CPA-0004","gispropnum":"X010","omppropid":"X010-05","notes":null},"geometry":{"type":"Point","coordinates":[-73.89068459287036,40.83775301393915]}},{"type":"Feature","properties":{"propname":"Hunts Point Playground","name":"Hunts Point Playground","system":"X113-CPA-0001","gispropnum":"X113","omppropid":"X113","notes":null},"geometry":{"type":"Point","coordinates":[-73.88597051930208,40.81413655991975]}},{"type":"Feature","properties":{"propname":"Castlewood Playground","name":"Castlewood Playground","system":"Q327-CPA-0001","gispropnum":"Q327","omppropid":"Q327","notes":null},"geometry":{"type":"Point","coordinates":[-73.72236226938723,40.74931159753122]}},{"type":"Feature","properties":{"propname":"Marine Park","name":"Dr John's Plgd","system":"B057-CPA-0003","gispropnum":"B057","omppropid":"B057-05","notes":null},"geometry":{"type":"Point","coordinates":[-73.92795719472964,40.596814792192106]}},{"type":"Feature","properties":{"propname":"Decatur Playground","name":"Decatur Playground","system":"B215-CPA-0001","gispropnum":"B215","omppropid":"B215","notes":null},"geometry":{"type":"Point","coordinates":[-73.93655118262876,40.681435714174285]}},{"type":"Feature","properties":{"propname":"Webster Playground","name":"Webster Playground","system":"X174-CPA-0001","gispropnum":"X174","omppropid":"X174","notes":null},"geometry":{"type":"Point","coordinates":[-73.89289227449126,40.859383860099705]}},{"type":"Feature","properties":{"propname":"Admiral Farragut Playground","name":"Admiral Farragut Playground","system":"X148H-CPA-0001","gispropnum":"X148H","omppropid":"X148H","notes":null},"geometry":{"type":"Point","coordinates":[-73.89177483175948,40.84295236426989]}},{"type":"Feature","properties":{"propname":"Annadale Playground","name":"Annadale Playground","system":"Q319-CPA-0001","gispropnum":"Q319","omppropid":"Q319","notes":null},"geometry":{"type":"Point","coordinates":[-73.85180879036906,40.731135174198506]}},{"type":"Feature","properties":{"propname":"Cunningham Park","name":"210 St Playground","system":"Q021-CPA-0003","gispropnum":"Q021","omppropid":"Q021-03","notes":null},"geometry":{"type":"Point","coordinates":[-73.76533876096367,40.739253874362966]}},{"type":"Feature","properties":{"propname":"Callahan-Kelly Playground","name":"Callahan-Kelly Playground","system":"B219-CPA-0003","gispropnum":"B219","omppropid":"B219","notes":null},"geometry":{"type":"Point","coordinates":[-73.90531416889664,40.67835975344769]}},{"type":"Feature","properties":{"propname":"Fort Greene Park","name":"Fort Greene Park","system":"B032-CPA-0002","gispropnum":"B032","omppropid":"B032-02","notes":null},"geometry":{"type":"Point","coordinates":[-73.97366511105332,40.690241524743215]}},{"type":"Feature","properties":{"propname":"Linwood Playground","name":"Linwood Playground","system":"B149B-CPA-0001","gispropnum":"B149B","omppropid":"B149B","notes":null},"geometry":{"type":"Point","coordinates":[-73.88037103552604,40.66610712407846]}},{"type":"Feature","properties":{"propname":"Franklin D. Roosevelt Boardwalk and Beach","name":"Playland","system":"R046-CPA-0003","gispropnum":"R046","omppropid":"R046-05","notes":null},"geometry":{"type":"Point","coordinates":[-74.06756077201472,40.588900710334556]}},{"type":"Feature","properties":{"propname":"Mosholu Parkway","name":"Knox-Gates Playground","system":"X033-CPA-0002","gispropnum":"X033","omppropid":"X033-04","notes":null},"geometry":{"type":"Point","coordinates":[-73.88521313050062,40.88193137994853]}},{"type":"Feature","properties":{"propname":"Epiphany Playground","name":"Epiphany Playground","system":"B405-CPA-0001","gispropnum":"B405","omppropid":"B405","notes":null},"geometry":{"type":"Point","coordinates":[-73.96554230718638,40.708559324748876]}},{"type":"Feature","properties":{"propname":"Seton Park","name":"Seton Park Playground","system":"X201-CPA-0001","gispropnum":"X201","omppropid":"X201-01","notes":null},"geometry":{"type":"Point","coordinates":[-73.9170228421263,40.886453446951236]}},{"type":"Feature","properties":{"propname":"Goble Playground","name":"Goble Playground","system":"X114-CPA-0001","gispropnum":"X114","omppropid":"X114","notes":null},"geometry":{"type":"Point","coordinates":[-73.91704568052918,40.84376708848204]}},{"type":"Feature","properties":{"propname":"Ogden Plimpton Playground","name":"Ogden Plimpton Playground","system":"X287-CPA-0001","gispropnum":"X287","omppropid":"X287","notes":null},"geometry":{"type":"Point","coordinates":[-73.92374053212824,40.84190389161912]}},{"type":"Feature","properties":{"propname":"East Flatbush Children's Playground","name":"East Flatbush Children's Playground","system":"B404-CPA-0001","gispropnum":"B404","omppropid":"B404","notes":null},"geometry":{"type":"Point","coordinates":[-73.92695223319913,40.66326731457253]}},{"type":"Feature","properties":{"propname":"Riverside Park","name":"Tot Lot One Hundred Five","system":"M071-CPA-0009","gispropnum":"M071","omppropid":"M071-34","notes":null},"geometry":{"type":"Point","coordinates":[-73.9709500469735,40.80175743951666]}},{"type":"Feature","properties":{"propname":"St. Michael's Playground","name":"St. Michael's Playground","system":"Q174A-CPA-0001","gispropnum":"Q174A","omppropid":"Q174A","notes":null},"geometry":{"type":"Point","coordinates":[-73.90015135105241,40.75898091484232]}},{"type":"Feature","properties":{"propname":"Martin Luther Playground","name":"Martin Luther Playground","system":"B098-CPA-0001","gispropnum":"B098","omppropid":"B098","notes":null},"geometry":{"type":"Point","coordinates":[-74.01974628481774,40.64578503526083]}},{"type":"Feature","properties":{"propname":"Queensbridge Park","name":"Vernon Playground","system":"Q104-CPA-0001","gispropnum":"Q104","omppropid":"Q104-01","notes":null},"geometry":{"type":"Point","coordinates":[-73.94698567877346,40.757071763901806]}},{"type":"Feature","properties":{"propname":"Bill Bojangles Robinson Playground","name":"Bill Bojangles Robinson Playground","system":"M138-CPA-0001","gispropnum":"M138","omppropid":"M138","notes":null},"geometry":{"type":"Point","coordinates":[-73.93729268851594,40.825279701734765]}},{"type":"Feature","properties":{"propname":"Coffey Park","name":"Coffey Park Playground","system":"B077-CPA-0001","gispropnum":"B077","omppropid":"B077-01","notes":null},"geometry":{"type":"Point","coordinates":[-74.00902206759406,40.67711520245582]}},{"type":"Feature","properties":{"propname":"Greene Playground","name":"Greene Playground","system":"B301-CPA-0001","gispropnum":"B301","omppropid":"B301","notes":null},"geometry":{"type":"Point","coordinates":[-73.9659030811478,40.68619030071928]}},{"type":"Feature","properties":{"propname":"Elmhurst Park","name":"Elmhurst Park","system":"Q492-CPA-0001","gispropnum":"Q492","omppropid":"Q492","notes":null},"geometry":{"type":"Point","coordinates":[-73.88512731574872,40.72989579784303]}},{"type":"Feature","properties":{"propname":"E.M.T. Christopher J. Prescott Playground","name":"E.M.T. Christopher J. Prescott Playground","system":"R085-CPA-0001","gispropnum":"R085","omppropid":"R085","notes":null},"geometry":{"type":"Point","coordinates":[-74.1860914681989,40.52260374465116]}},{"type":"Feature","properties":{"propname":"London Planetree Playground","name":"London Planetree Playground","system":"Q128-CPA-0001","gispropnum":"Q128","omppropid":"Q128","notes":null},"geometry":{"type":"Point","coordinates":[-73.85324212340538,40.686139829585784]}},{"type":"Feature","properties":{"propname":"Schmul Park","name":"Schmul Park","system":"R045-CPA-0001","gispropnum":"R045","omppropid":"R045-01","notes":null},"geometry":{"type":"Point","coordinates":[-74.18700645575701,40.58940216079417]}},{"type":"Feature","properties":{"propname":"Chiarantano Playground","name":"Chiarantano Playground","system":"B375-CPA-0001","gispropnum":"B375","omppropid":"B375","notes":null},"geometry":{"type":"Point","coordinates":[-73.93337554186297,40.63692895487087]}},{"type":"Feature","properties":{"propname":"Sunners Playground","name":"Sunners Playground","system":"B206-CPA-0001","gispropnum":"B206","omppropid":"B206","notes":null},"geometry":{"type":"Point","coordinates":[-73.92961559710936,40.632497739471326]}},{"type":"Feature","properties":{"propname":"Dr. Green Playground","name":"Dr. Green Playground","system":"B228-CPA-0001","gispropnum":"B228","omppropid":"B228","notes":null},"geometry":{"type":"Point","coordinates":[-73.9070599878865,40.667199128627146]}},{"type":"Feature","properties":{"propname":"Brower Park","name":"Brower Park","system":"B012-CPA-0002","gispropnum":"B012","omppropid":"B012-03","notes":null},"geometry":{"type":"Point","coordinates":[-73.9431716009354,40.67441127015199]}},{"type":"Feature","properties":{"propname":"Gravesend Park","name":"Gravesend Park","system":"B042-CPA-0001","gispropnum":"B042","omppropid":"B042","notes":null},"geometry":{"type":"Point","coordinates":[-73.98435468760252,40.62356082932243]}},{"type":"Feature","properties":{"propname":"Baruch Playground","name":"Baruch Playground","system":"M165-CPA-0001","gispropnum":"M165","omppropid":"M165","notes":null},"geometry":{"type":"Point","coordinates":[-73.97682303434337,40.71730558843404]}},{"type":"Feature","properties":{"propname":"Rev. T. Wendell Foster Park and Recreation Center","name":"Foster Park South Playground","system":"X034-CPA-0001","gispropnum":"X034","omppropid":"X034-01","notes":null},"geometry":{"type":"Point","coordinates":[-73.92541113547921,40.831352694129265]}},{"type":"Feature","properties":{"propname":"Oxport Playground","name":"Oxport Playground","system":"B295-CPA-0001","gispropnum":"B295","omppropid":"B295","notes":null},"geometry":{"type":"Point","coordinates":[-73.9762438578113,40.69760448564167]}},{"type":"Feature","properties":{"propname":"Edmonds Playground","name":"Edmonds Playground","system":"B321-CPA-0001","gispropnum":"B321","omppropid":"B321","notes":null},"geometry":{"type":"Point","coordinates":[-73.97153486755863,40.68918815239621]}},{"type":"Feature","properties":{"propname":"Playground of the Americas","name":"Playground of the Americas","system":"M120B-CPA-0001","gispropnum":"M120B","omppropid":"M120B","notes":null},"geometry":{"type":"Point","coordinates":[-74.00271469035523,40.728002740966]}},{"type":"Feature","properties":{"propname":"Raymond Bush Playground","name":"Raymond Bush Playground","system":"B216-CPA-0001","gispropnum":"B216","omppropid":"B216","notes":null},"geometry":{"type":"Point","coordinates":[-73.93955234393525,40.686363713472204]}},{"type":"Feature","properties":{"propname":"Henry Hudson Park","name":"Henry Hudson Playground (South)","system":"X080-CPA-0003","gispropnum":"X080","omppropid":"X080-03","notes":null},"geometry":{"type":"Point","coordinates":[-73.92043903906055,40.881184679132964]}},{"type":"Feature","properties":{"propname":"Raymond O’Connor Park","name":"Raymond O’Connor Park","system":"Q103-CPA-0001","gispropnum":"Q103","omppropid":"Q103","notes":null},"geometry":{"type":"Point","coordinates":[-73.77933493171489,40.771712526440716]}},{"type":"Feature","properties":{"propname":"Detective Keith L Williams Park","name":"173 St Playground (det. Williams)","system":"Q121-CPA-0001","gispropnum":"Q121","omppropid":"Q121-01","notes":null},"geometry":{"type":"Point","coordinates":[-73.78356694796547,40.70200349315532]}},{"type":"Feature","properties":{"propname":"McGuire Fields","name":"McGuire Fields Tot Lot","system":"B166D-CPA-0001","gispropnum":"B166D","omppropid":"B166D-01","notes":null},"geometry":{"type":"Point","coordinates":[-73.899194560543,40.620030241620015]}},{"type":"Feature","properties":{"propname":"St. Mary's Park","name":"St Mary's Playground West","system":"X045-CPA-0003","gispropnum":"X045","omppropid":"X045-03","notes":null},"geometry":{"type":"Point","coordinates":[-73.91325758567189,40.81279620040926]}},{"type":"Feature","properties":{"propname":"Maurice A FitzGerald Playground","name":"Maurice A FitzGerald Playground","system":"Q337-CPA-0001","gispropnum":"Q337","omppropid":"Q337","notes":null},"geometry":{"type":"Point","coordinates":[-73.83975342745691,40.69031876366741]}},{"type":"Feature","properties":{"propname":"Broad Channel Park","name":"Broad Channel Park","system":"Q460-CPA-0001","gispropnum":"Q460","omppropid":"Q460","notes":null},"geometry":{"type":"Point","coordinates":[-73.81976856395283,40.60102020082356]}},{"type":"Feature","properties":{"propname":"Midland Playground","name":"Midland Playground","system":"R038-CPA-0001","gispropnum":"R038","omppropid":"R038","notes":null},"geometry":{"type":"Point","coordinates":[-74.0988086661346,40.57490024839351]}},{"type":"Feature","properties":{"propname":"Riverside Park","name":"Claremont","system":"M071-CPA-0008","gispropnum":"M071","omppropid":"M071-31","notes":null},"geometry":{"type":"Point","coordinates":[-73.962104993256,40.81503372525545]}},{"type":"Feature","properties":{"propname":"Tudor Park","name":"Addabbo Playground","system":"Q094-CPA-0001","gispropnum":"Q094","omppropid":"Q094-01","notes":null},"geometry":{"type":"Point","coordinates":[-73.85407878797002,40.67310816053433]}},{"type":"Feature","properties":{"propname":"Louis C. Moser Playground","name":"Louis C. Moser Playground","system":"Q366-CPA-0001","gispropnum":"Q366","omppropid":"Q366","notes":null},"geometry":{"type":"Point","coordinates":[-73.89223437730166,40.76310686198221]}},{"type":"Feature","properties":{"propname":"El Shabazz Playground","name":"El Shabazz Playground","system":"B313-CPA-0001","gispropnum":"B313","omppropid":"B313","notes":null},"geometry":{"type":"Point","coordinates":[-73.93044672965522,40.682796658785925]}},{"type":"Feature","properties":{"propname":"Mabel Hampton Playground","name":"Mabel Hampton Playground","system":"X292-CPA-0001","gispropnum":"X292","omppropid":"X292","notes":null},"geometry":{"type":"Point","coordinates":[-73.9040031394053,40.85456580342382]}},{"type":"Feature","properties":{"propname":"St. Catherine's Park","name":"St. Catherine's Park","system":"M079-CPA-0001","gispropnum":"M079","omppropid":"M079","notes":null},"geometry":{"type":"Point","coordinates":[-73.95872136943744,40.765194408984755]}},{"type":"Feature","properties":{"propname":"MacLaughlin Playground","name":"MacLaughlin Playground","system":"X224-CPA-0001","gispropnum":"X224","omppropid":"X224","notes":null},"geometry":{"type":"Point","coordinates":[-73.9053521032845,40.887943108935026]}},{"type":"Feature","properties":{"propname":"Peters Field","name":"Peters Field","system":"Q351-CPA-0001","gispropnum":"Q351","omppropid":"Q351","notes":null},"geometry":{"type":"Point","coordinates":[-73.77483943300795,40.70601480303529]}},{"type":"Feature","properties":{"propname":"Henry Hudson Park","name":"Henry Hudson Pk (Upper)","system":"X080-CPA-0002","gispropnum":"X080","omppropid":"X080-02","notes":null},"geometry":{"type":"Point","coordinates":[-73.91799615360512,40.8821946633149]}},{"type":"Feature","properties":{"propname":"Washington Hall Park","name":"Washington Hall Park","system":"B220-CPA-0001","gispropnum":"B220","omppropid":"B220","notes":null},"geometry":{"type":"Point","coordinates":[-73.96678503554405,40.69534302315835]}},{"type":"Feature","properties":{"propname":"Wingate Park","name":"Wingate Park","system":"B254-CPA-0001","gispropnum":"B254","omppropid":"B254","notes":null},"geometry":{"type":"Point","coordinates":[-73.94419925914087,40.65856952013089]}},{"type":"Feature","properties":{"propname":"Levy Playground","name":"Levy Playground","system":"R033-CPA-0001","gispropnum":"R033","omppropid":"R033","notes":null},"geometry":{"type":"Point","coordinates":[-74.12893852661668,40.633914048726155]}},{"type":"Feature","properties":{"propname":"Tanahey Playground","name":"Tanahey Playground","system":"M206-CPA-0001","gispropnum":"M206","omppropid":"M206","notes":null},"geometry":{"type":"Point","coordinates":[-73.99518030594669,40.710160246791595]}},{"type":"Feature","properties":{"propname":"Utopia Playground","name":"Utopia Playground","system":"Q294-CPA-0001","gispropnum":"Q294","omppropid":"Q294","notes":null},"geometry":{"type":"Point","coordinates":[-73.7927763208808,40.73072573075091]}},{"type":"Feature","properties":{"propname":"Hoffman Park","name":"Hoffman Park","system":"Q360N-CPA-0001","gispropnum":"Q360N","omppropid":"Q360N","notes":null},"geometry":{"type":"Point","coordinates":[-73.87212215933883,40.73280180484975]}},{"type":"Feature","properties":{"propname":"Almeda Playground","name":"Almeda Playground","system":"Q443-CPA-0001","gispropnum":"Q443","omppropid":"Q443","notes":null},"geometry":{"type":"Point","coordinates":[-73.79468426391328,40.59354374611124]}},{"type":"Feature","properties":{"propname":"Captain William Harry Thompson Playground","name":"Captain William Harry Thompson Playground","system":"X159-CPA-0001","gispropnum":"X159","omppropid":"X159","notes":null},"geometry":{"type":"Point","coordinates":[-73.87776458195762,40.834348562048234]}},{"type":"Feature","properties":{"propname":"Elton Playground","name":"Elton Playground","system":"B149A-CPA-0001","gispropnum":"B149A","omppropid":"B149A","notes":null},"geometry":{"type":"Point","coordinates":[-73.88073888169129,40.66593255553139]}},{"type":"Feature","properties":{"propname":"Morningside Park","name":"Morningside Plgd","system":"M056-CPA-0006","gispropnum":"M056","omppropid":"M056-02","notes":null},"geometry":{"type":"Point","coordinates":[-73.9577765411037,40.806861742635164]}},{"type":"Feature","properties":{"propname":"Forest Park","name":"Sobelsohn Park","system":"Q015-CPA-0001","gispropnum":"Q015","omppropid":"Q015-02","notes":null},"geometry":{"type":"Point","coordinates":[-73.83623256800725,40.70944772396722]}},{"type":"Feature","properties":{"propname":"Golconda Playground","name":"Golconda Playground","system":"B243-CPA-0001","gispropnum":"B243","omppropid":"B243","notes":null},"geometry":{"type":"Point","coordinates":[-73.98215440353025,40.697901844578276]}},{"type":"Feature","properties":{"propname":"Clintonville Playground","name":"Clintonville Playground","system":"Q390-CPA-0001","gispropnum":"Q390","omppropid":"Q390","notes":null},"geometry":{"type":"Point","coordinates":[-73.80750297014147,40.78321826478019]}},{"type":"Feature","properties":{"propname":"South Pacific Playground","name":"South Pacific Playground","system":"B153-CPA-0001","gispropnum":"B153","omppropid":"B153","notes":null},"geometry":{"type":"Point","coordinates":[-73.92029673891332,40.67565279629249]}},{"type":"Feature","properties":{"propname":"Carroll Park","name":"Carroll Park","system":"B019-CPA-0001","gispropnum":"B019","omppropid":"B019","notes":null},"geometry":{"type":"Point","coordinates":[-73.99547459233308,40.681098550728215]}},{"type":"Feature","properties":{"propname":"Clove Lakes Park","name":"Clove Lakes Park Plgd","system":"R005-CPA-0001","gispropnum":"R005","omppropid":"R005-01","notes":null},"geometry":{"type":"Point","coordinates":[-74.1060495283038,40.6185355250479]}},{"type":"Feature","properties":{"propname":"Arrochar Playground","name":"Arrochar Playground","system":"R062-CPA-0001","gispropnum":"R062","omppropid":"R062","notes":null},"geometry":{"type":"Point","coordinates":[-74.07093379448536,40.59774332822533]}},{"type":"Feature","properties":{"propname":"Alexander Hamilton Playground","name":"Alexander Hamilton Playground","system":"M041-CPA-0001","gispropnum":"M041","omppropid":"M041","notes":null},"geometry":{"type":"Point","coordinates":[-73.9512856114817,40.82307915521919]}},{"type":"Feature","properties":{"propname":"Rainbow Playground","name":"Rainbow Playground","system":"B265-CPA-0001","gispropnum":"B265","omppropid":"B265","notes":null},"geometry":{"type":"Point","coordinates":[-74.0110649060401,40.64054463896644]}},{"type":"Feature","properties":{"propname":"Thomas J. Cuite Park","name":"Thomas J. Cuite Park","system":"B255H-CPA-0001","gispropnum":"B255H","omppropid":"B255H","notes":null},"geometry":{"type":"Point","coordinates":[-73.97865637662434,40.65423605198662]}},{"type":"Feature","properties":{"propname":"Berriman Playground","name":"Berriman Playground","system":"B541-CPA-0001","gispropnum":"B541","omppropid":"B541","notes":null},"geometry":{"type":"Point","coordinates":[-73.86947701657192,40.65684037084432]}},{"type":"Feature","properties":{"propname":"Bronx Park","name":"Brady Plgd","system":"X002-CPA-0002","gispropnum":"X002","omppropid":"X002-05","notes":null},"geometry":{"type":"Point","coordinates":[-73.86876815406741,40.85139360191862]}},{"type":"Feature","properties":{"propname":"Fox Playground","name":"Fox Playground","system":"B248-CPA-0001","gispropnum":"B248","omppropid":"B248","notes":null},"geometry":{"type":"Point","coordinates":[-73.92392166115977,40.632328662421536]}},{"type":"Feature","properties":{"propname":"Carmansville Playground","name":"Carmansville Playground","system":"M018-CPA-0001","gispropnum":"M018","omppropid":"M018","notes":null},"geometry":{"type":"Point","coordinates":[-73.94425772615143,40.82918882207058]}},{"type":"Feature","properties":{"propname":"Soundview Park","name":"Soundview Park","system":"X118-CPA-0002","gispropnum":"X118","omppropid":"X118-02","notes":null},"geometry":{"type":"Point","coordinates":[-73.87057741052085,40.818675976886134]}},{"type":"Feature","properties":{"propname":"Cuyler Gore Park","name":"Cuyler Gore Park","system":"B026-CPA-0001","gispropnum":"B026","omppropid":"B026","notes":null},"geometry":{"type":"Point","coordinates":[-73.97193239275744,40.68565766999054]}},{"type":"Feature","properties":{"propname":"John Allen Payne Playground","name":"John Allen Payne Playground","system":"B210A-CPA-0001","gispropnum":"B210A","omppropid":"B210A","notes":null},"geometry":{"type":"Point","coordinates":[-74.02388094903672,40.63997219901913]}},{"type":"Feature","properties":{"propname":"Shore Park and Parkway","name":"Vinland Plgd","system":"B082-CPA-0001","gispropnum":"B082","omppropid":"B082-01B","notes":null},"geometry":{"type":"Point","coordinates":[-74.04001947569509,40.617451230915584]}},{"type":"Feature","properties":{"propname":"Washington Square Park","name":"Washington Square Park","system":"M098-CPA-0003","gispropnum":"M098","omppropid":"M098-02","notes":null},"geometry":{"type":"Point","coordinates":[-73.99756761487697,40.73151821793096]}},{"type":"Feature","properties":{"propname":"Queens Valley Playground","name":"Queens Valley Playground","system":"Q212-CPA-0001","gispropnum":"Q212","omppropid":"Q212","notes":null},"geometry":{"type":"Point","coordinates":[-73.82372503508044,40.72185906375357]}},{"type":"Feature","properties":{"propname":"Playground Eighty LXXX","name":"Playground Eighty LXXX","system":"Q318-CPA-0001","gispropnum":"Q318","omppropid":"Q318","notes":null},"geometry":{"type":"Point","coordinates":[-73.70955396527958,40.744647650776514]}},{"type":"Feature","properties":{"propname":"Matthews Muliner Playground","name":"Matthews Muliner Playground","system":"X178-CPA-0001","gispropnum":"X178","omppropid":"X178","notes":null},"geometry":{"type":"Point","coordinates":[-73.86150089240425,40.84691561552138]}},{"type":"Feature","properties":{"propname":"Prospect Park","name":"Harmony Playground","system":"B073-CPA-0006","gispropnum":"B073","omppropid":"B073-20","notes":null},"geometry":{"type":"Point","coordinates":[-73.97696344628247,40.66346528927821]}},{"type":"Feature","properties":{"propname":"McLaughlin Park","name":"McLaughlin Park","system":"B061-CPA-0001","gispropnum":"B061","omppropid":"B061","notes":null},"geometry":{"type":"Point","coordinates":[-73.98604714264975,40.69651482516389]}},{"type":"Feature","properties":{"propname":"Helen Marshall Playground","name":"Helen Marshall Playground","system":"Q373-CPA-0001","gispropnum":"Q373","omppropid":"Q373","notes":null},"geometry":{"type":"Point","coordinates":[-73.8708076878069,40.76557938542302]}},{"type":"Feature","properties":{"propname":"Marlboro Playground","name":"Marlboro Playground","system":"B272-CPA-0001","gispropnum":"B272","omppropid":"B272","notes":null},"geometry":{"type":"Point","coordinates":[-73.98084346972668,40.59121926406819]}},{"type":"Feature","properties":{"propname":"Green Central Knoll","name":"Green Central Knoll","system":"B395-CPA-0001","gispropnum":"B395","omppropid":"B395","notes":null},"geometry":{"type":"Point","coordinates":[-73.93303455932788,40.70193346121584]}},{"type":"Feature","properties":{"propname":"Seaside Wildlife Nature Park","name":"Seaside Wildlife Nature Playground","system":"R145-CPA-0001","gispropnum":"R145","omppropid":"R145-01","notes":null},"geometry":{"type":"Point","coordinates":[-74.14271263026092,40.5415324427073]}},{"type":"Feature","properties":{"propname":"West Playground","name":"West Playground","system":"B252-CPA-0001","gispropnum":"B252","omppropid":"B252","notes":null},"geometry":{"type":"Point","coordinates":[-73.9700708443345,40.587083923059716]}},{"type":"Feature","properties":{"propname":"Kissena Park","name":"Playground","system":"Q024-CPA-0001","gispropnum":"Q024","omppropid":"Q024-02","notes":null},"geometry":{"type":"Point","coordinates":[-73.80315212345168,40.74848881248112]}},{"type":"Feature","properties":{"propname":"Howard Playground","name":"Howard Playground","system":"B260-CPA-0001","gispropnum":"B260","omppropid":"B260","notes":null},"geometry":{"type":"Point","coordinates":[-73.90808803070993,40.671725637239135]}},{"type":"Feature","properties":{"propname":"Stop & Go Playground","name":"Stop & Go Playground","system":"X281-CPA-0001","gispropnum":"X281","omppropid":"X281","notes":null},"geometry":{"type":"Point","coordinates":[-73.89877596723858,40.845135900879995]}},{"type":"Feature","properties":{"propname":"Fish Playground","name":"Fish Playground","system":"B325-CPA-0001","gispropnum":"B325","omppropid":"B325","notes":null},"geometry":{"type":"Point","coordinates":[-73.91467808888495,40.678211813093114]}},{"type":"Feature","properties":{"propname":"Devoe Park","name":"Devoe Park","system":"X013-CPA-0001","gispropnum":"X013","omppropid":"X013-01","notes":null},"geometry":{"type":"Point","coordinates":[-73.90472640789365,40.863847083178605]}},{"type":"Feature","properties":{"propname":"Brigadier General Charles Young Playground","name":"Brigadier General Charles Young Playground","system":"M186-CPA-0001","gispropnum":"M186","omppropid":"M186","notes":null},"geometry":{"type":"Point","coordinates":[-73.9355395829173,40.81921072044503]}},{"type":"Feature","properties":{"propname":"Dongan Playground","name":"Dongan Playground","system":"R087-CPA-0001","gispropnum":"R087","omppropid":"R087","notes":null},"geometry":{"type":"Point","coordinates":[-74.08942868247449,40.58268389122485]}},{"type":"Feature","properties":{"propname":"Chelsea Park","name":"Chelsea Park","system":"M011-CPA-0001","gispropnum":"M011","omppropid":"M011","notes":null},"geometry":{"type":"Point","coordinates":[-74.00072824881616,40.74994165180858]}},{"type":"Feature","properties":{"propname":"Cleopatra Playground","name":"Cleopatra Playground","system":"X258-CPA-0001","gispropnum":"X258","omppropid":"X258","notes":null},"geometry":{"type":"Point","coordinates":[-73.90420039556872,40.84542066950687]}},{"type":"Feature","properties":{"propname":"William McCray Playground","name":"William McCray Playground","system":"M110-CPA-0001","gispropnum":"M110","omppropid":"M110","notes":null},"geometry":{"type":"Point","coordinates":[-73.93773378905756,40.81555117579403]}},{"type":"Feature","properties":{"propname":"Tompkins Square Park","name":"Tompkins Square Park","system":"M088-CPA-0001","gispropnum":"M088","omppropid":"M088-01","notes":null},"geometry":{"type":"Point","coordinates":[-73.98256257518385,40.72678251874897]}},{"type":"Feature","properties":{"propname":"Fort Washington Park","name":"Discovery Playground","system":"M028-CPA-0002","gispropnum":"M028","omppropid":"M028-03","notes":null},"geometry":{"type":"Point","coordinates":[-73.9476974247221,40.840077594029374]}},{"type":"Feature","properties":{"propname":"Dan Ross Playground","name":"Dan Ross Playground","system":"B210P-CPA-0001","gispropnum":"B210P","omppropid":"B210P","notes":null},"geometry":{"type":"Point","coordinates":[-74.02158919115938,40.62280335596247]}},{"type":"Feature","properties":{"propname":"Givan Square","name":"Angelo Campanaro Plgd","system":"X187-CPA-0001","gispropnum":"X187","omppropid":"X187-01","notes":null},"geometry":{"type":"Point","coordinates":[-73.8420865756983,40.867959469630286]}},{"type":"Feature","properties":{"propname":"Morris Mesa","name":"Morris Mesa","system":"X148D1-CPA-0001","gispropnum":"X148D1","omppropid":"X148D1","notes":null},"geometry":{"type":"Point","coordinates":[-73.90966007064195,40.845344612473845]}},{"type":"Feature","properties":{"propname":"Naples Playground","name":"Naples Playground","system":"R073-CPA-0001","gispropnum":"R073","omppropid":"R073","notes":null},"geometry":{"type":"Point","coordinates":[-74.09001421921779,40.60252315439436]}},{"type":"Feature","properties":{"propname":"Parade Ground","name":"Detective Dillon Stewart Plgd","system":"B068-CPA-0001","gispropnum":"B068","omppropid":"B068-01","notes":null},"geometry":{"type":"Point","coordinates":[-73.965353598648,40.6513133434616]}},{"type":"Feature","properties":{"propname":"Cherry Tree Park","name":"Cherry Tree Park","system":"M215-CPA-0001","gispropnum":"M215","omppropid":"M215","notes":null},"geometry":{"type":"Point","coordinates":[-73.94720552428667,40.78723868861341]}},{"type":"Feature","properties":{"propname":"Carver Playground","name":"Carver Playground","system":"B347-CPA-0001","gispropnum":"B347","omppropid":"B347","notes":null},"geometry":{"type":"Point","coordinates":[-73.92053093253502,40.6803043967663]}},{"type":"Feature","properties":{"propname":"Riverside Park","name":"Neufeld Plgd","system":"M071-CPA-0004","gispropnum":"M071","omppropid":"M071-04","notes":null},"geometry":{"type":"Point","coordinates":[-73.98488750553273,40.783375944605915]}},{"type":"Feature","properties":{"propname":"Central Park","name":"James Michael Levin Plgd","system":"M010-CPA-0006","gispropnum":"M010","omppropid":"M010-103","notes":null},"geometry":{"type":"Point","coordinates":[-73.9651730669553,40.77581806362531]}},{"type":"Feature","properties":{"propname":"Evergreen Playground","name":"Evergreen Playground","system":"B332-CPA-0001","gispropnum":"B332","omppropid":"B332","notes":null},"geometry":{"type":"Point","coordinates":[-73.91075895734545,40.686107787691355]}},{"type":"Feature","properties":{"propname":"Tilden Playground","name":"Tilden Playground","system":"B234-CPA-0001","gispropnum":"B234","omppropid":"B234","notes":null},"geometry":{"type":"Point","coordinates":[-73.9314253364633,40.647622163002744]}},{"type":"Feature","properties":{"propname":"Gertrude Ederle Recreation Center","name":"Gertrude Ederle Recreation Center","system":"M063-CPA-0001","gispropnum":"M063","omppropid":"M063","notes":null},"geometry":{"type":"Point","coordinates":[-73.98872926959103,40.77129359629984]}},{"type":"Feature","properties":{"propname":"Drew Playground","name":"Drew Playground","system":"X021-CPA-0001","gispropnum":"X021","omppropid":"X021","notes":null},"geometry":{"type":"Point","coordinates":[-73.90333253475261,40.833145892637816]}},{"type":"Feature","properties":{"propname":"Grove Hill Playground","name":"Grove Hill Playground","system":"X235-CPA-0001","gispropnum":"X235","omppropid":"X235","notes":null},"geometry":{"type":"Point","coordinates":[-73.90884219941405,40.81987181063225]}},{"type":"Feature","properties":{"propname":"Baisley Pond Park","name":"157 St Playground","system":"Q005-CPA-0003","gispropnum":"Q005","omppropid":"Q005-05","notes":null},"geometry":{"type":"Point","coordinates":[-73.78608839684699,40.68408743503707]}},{"type":"Feature","properties":{"propname":"Ravenswood Playground","name":"Ravenswood Playground","system":"Q333-CPA-0001","gispropnum":"Q333","omppropid":"Q333","notes":null},"geometry":{"type":"Point","coordinates":[-73.93534261211592,40.762607942027905]}},{"type":"Feature","properties":{"propname":"Wayanda Park","name":"Wayanda Park","system":"Q082-CPA-0001","gispropnum":"Q082","omppropid":"Q082","notes":null},"geometry":{"type":"Point","coordinates":[-73.73902875391182,40.710762778580076]}},{"type":"Feature","properties":{"propname":"Kissena Corridor Park","name":"Silent Springs Playground","system":"Q300-CPA-0002","gispropnum":"Q300","omppropid":"Q300-03","notes":null},"geometry":{"type":"Point","coordinates":[-73.82299300679888,40.74989280886066]}},{"type":"Feature","properties":{"propname":"Macombs Dam Park","name":"Summit Playground","system":"X030-CPA-0002","gispropnum":"X030","omppropid":"X030-99","notes":null},"geometry":{"type":"Point","coordinates":[-73.9315573254474,40.83069372493181]}},{"type":"Feature","properties":{"propname":"Bloomingdale Park","name":"Bloomingdale Playground","system":"R106-CPA-0001","gispropnum":"R106","omppropid":"R106-01","notes":null},"geometry":{"type":"Point","coordinates":[-74.20861506842142,40.53517198994796]}},{"type":"Feature","properties":{"propname":"Bergen Beach Playground","name":"Bergen Beach Playground","system":"B353-CPA-0001","gispropnum":"B353","omppropid":"B353","notes":null},"geometry":{"type":"Point","coordinates":[-73.90953459960716,40.62242748187184]}},{"type":"Feature","properties":{"propname":"Dodger Playground","name":"Dodger Playground","system":"B121-CPA-0001","gispropnum":"B121","omppropid":"B121","notes":null},"geometry":{"type":"Point","coordinates":[-73.95236037123057,40.6648736878899]}},{"type":"Feature","properties":{"propname":"Lincoln Terrace / Arthur S. Somers Park","name":"Lincoln Terrace Park / Arthur S. Somers Playground","system":"B054-CPA-0001","gispropnum":"B054","omppropid":"B054-01","notes":null},"geometry":{"type":"Point","coordinates":[-73.92794498767677,40.666404368812024]}},{"type":"Feature","properties":{"propname":"Sidney Hillman Playground","name":"Sidney Hillman Playground","system":"M195-CPA-0001","gispropnum":"M195","omppropid":"M195","notes":null},"geometry":{"type":"Point","coordinates":[-73.97965743097538,40.71521834544448]}},{"type":"Feature","properties":{"propname":"Century Playground","name":"Century Playground","system":"B337-CPA-0003","gispropnum":"B337","omppropid":"B337","notes":null},"geometry":{"type":"Point","coordinates":[-73.97039455933502,40.57701789715468]}},{"type":"Feature","properties":{"propname":"Forest Park","name":"Dry Harbor Playground","system":"Q015-CPA-0005","gispropnum":"Q015","omppropid":"Q015-08","notes":null},"geometry":{"type":"Point","coordinates":[-73.86776317695309,40.70255166236913]}},{"type":"Feature","properties":{"propname":"Central Park","name":"Spector Plgd","system":"M010-CPA-0011","gispropnum":"M010","omppropid":"M010-169","notes":null},"geometry":{"type":"Point","coordinates":[-73.96839542966363,40.78451679800634]}},{"type":"Feature","properties":{"propname":"Glen Oaks Oval","name":"Glen Oaks Oval","system":"Q310-CPA-0001","gispropnum":"Q310","omppropid":"Q310","notes":null},"geometry":{"type":"Point","coordinates":[-73.71562580221124,40.74953393256988]}},{"type":"Feature","properties":{"propname":"Havemeyer Playground","name":"Havemeyer Playground","system":"X148M1-CPA-0001","gispropnum":"X148M1","omppropid":"X148M1","notes":null},"geometry":{"type":"Point","coordinates":[-73.84785926427688,40.82990247425909]}},{"type":"Feature","properties":{"propname":"Chester Playground","name":"Chester Playground","system":"B362-CPA-0001","gispropnum":"B362","omppropid":"B362","notes":null},"geometry":{"type":"Point","coordinates":[-73.9118484833744,40.66869400222292]}},{"type":"Feature","properties":{"propname":"Robert L. Clinkscales Playground and Community Garden","name":"Robert L. Clinkscales Playground and Community Garden","system":"M355-CPA-0001","gispropnum":"M355","omppropid":"M355","notes":null},"geometry":{"type":"Point","coordinates":[-73.94008097944251,40.82269194441549]}},{"type":"Feature","properties":{"propname":"Mount Prospect Park","name":"Mt Prospect Park Playground","system":"B159-CPA-0001","gispropnum":"B159","omppropid":"B159-01","notes":null},"geometry":{"type":"Point","coordinates":[-73.96602956300721,40.67205744310314]}},{"type":"Feature","properties":{"propname":"Bronx Park","name":"Rosewood Playground","system":"X002-CPA-0006","gispropnum":"X002","omppropid":"X002-14","notes":null},"geometry":{"type":"Point","coordinates":[-73.8710407773186,40.87291423298595]}},{"type":"Feature","properties":{"propname":"Rosemary's Playground","name":"Rosemary's Playground","system":"Q398-CPA-0001","gispropnum":"Q398","omppropid":"Q398","notes":null},"geometry":{"type":"Point","coordinates":[-73.90395022562754,40.704729837663955]}},{"type":"Feature","properties":{"propname":"Laurelton Parkway","name":"Laurelton Parkway West Playground","system":"Q027-CPA-0001","gispropnum":"Q027","omppropid":"Q027-02","notes":null},"geometry":{"type":"Point","coordinates":[-73.72701773073612,40.68466372033359]}},{"type":"Feature","properties":{"propname":"Lion's Pride Playground","name":"Lion's Pride Playground","system":"B107-CPA-0001","gispropnum":"B107","omppropid":"B107","notes":null},"geometry":{"type":"Point","coordinates":[-73.899770061096,40.66269761584979]}},{"type":"Feature","properties":{"propname":"Hoover - Manton Playgrounds","name":"Hoover - Manton Playgrounds","system":"Q220G-CPA-0001","gispropnum":"Q220G","omppropid":"Q220G","notes":null},"geometry":{"type":"Point","coordinates":[-73.82123043170806,40.711472464792536]}},{"type":"Feature","properties":{"propname":"Pratt Playground","name":"Pratt Playground","system":"B292-CPA-0001","gispropnum":"B292","omppropid":"B292","notes":null},"geometry":{"type":"Point","coordinates":[-73.96252583664233,40.69263651391402]}},{"type":"Feature","properties":{"propname":"Sara D. Roosevelt Park","name":"Hester St Plgd","system":"M105-CPA-0003","gispropnum":"M105","omppropid":"M105-08","notes":null},"geometry":{"type":"Point","coordinates":[-73.99376600632645,40.7173930021888]}},{"type":"Feature","properties":{"propname":"Watson Gleason Playground","name":"Watson Gleason Playground","system":"X124-CPA-0001","gispropnum":"X124","omppropid":"X124","notes":null},"geometry":{"type":"Point","coordinates":[-73.86896397730557,40.82844177695742]}},{"type":"Feature","properties":{"propname":"Vincent F. Albano Jr. Playground","name":"Vincent F. Albano Jr. Playground","system":"M265-CPA-0001","gispropnum":"M265","omppropid":"M265","notes":null},"geometry":{"type":"Point","coordinates":[-73.97849255653817,40.742006985382595]}},{"type":"Feature","properties":{"propname":"Highbridge Park","name":"Wallenberg Plgd","system":"M037-CPA-0002","gispropnum":"M037","omppropid":"M037-04","notes":null},"geometry":{"type":"Point","coordinates":[-73.92689892107424,40.85291295569676]}},{"type":"Feature","properties":{"propname":"Bleecker Playground","name":"Bleecker Playground","system":"M251-CPA-0001","gispropnum":"M251","omppropid":"M251","notes":null},"geometry":{"type":"Point","coordinates":[-74.00549687444888,40.73637861170758]}},{"type":"Feature","properties":{"propname":"Babi Yar Triangle","name":"Babi Yar Triangle","system":"BZ10-CPA-0001","gispropnum":"BZ10","omppropid":"BZ10","notes":null},"geometry":{"type":"Point","coordinates":[-73.95464862929475,40.5793711880103]}},{"type":"Feature","properties":{"propname":"Hilltop Playground","name":"Hilltop Playground","system":"B387-CPA-0001","gispropnum":"B387","omppropid":"B387","notes":null},"geometry":{"type":"Point","coordinates":[-73.91433859811104,40.67532564229234]}},{"type":"Feature","properties":{"propname":"Merriam Playground","name":"Merriam Plgd (Lower)","system":"X153-CPA-0002","gispropnum":"X153","omppropid":"X153-02","notes":null},"geometry":{"type":"Point","coordinates":[-73.92637695176496,40.838900616794746]}},{"type":"Feature","properties":{"propname":"Beach Channel Playground","name":"Beach Channel Playground","system":"Q403-CPA-0001","gispropnum":"Q403","omppropid":"Q403","notes":null},"geometry":{"type":"Point","coordinates":[-73.80584726874092,40.58891642289615]}},{"type":"Feature","properties":{"propname":"Francis Lewis Playground","name":"Francis Lewis Playground","system":"Q381-CPA-0001","gispropnum":"Q381","omppropid":"Q381","notes":null},"geometry":{"type":"Point","coordinates":[-73.78403163113822,40.760436882369376]}},{"type":"Feature","properties":{"propname":"Herbert Von King Park","name":"Herbert Von King Park","system":"B088-CPA-0002","gispropnum":"B088","omppropid":"B088-03","notes":null},"geometry":{"type":"Point","coordinates":[-73.94644959209165,40.69013614446999]}},{"type":"Feature","properties":{"propname":"Beach 30th Street Playground","name":"Beach 30th Street Playground","system":"Q162H-CPA-0001","gispropnum":"Q162H","omppropid":"Q162H","notes":null},"geometry":{"type":"Point","coordinates":[-73.76248932305292,40.59246065996312]}},{"type":"Feature","properties":{"propname":"Gen. Douglas MacArthur Park","name":"Gen. Douglas MacArthur Park","system":"R067-CPA-0001","gispropnum":"R067","omppropid":"R067","notes":null},"geometry":{"type":"Point","coordinates":[-74.1002275276002,40.586580457789665]}},{"type":"Feature","properties":{"propname":"Monsignor Kett Playground","name":"Monsignor Kett Playground","system":"M199-CPA-0001","gispropnum":"M199","omppropid":"M199","notes":null},"geometry":{"type":"Point","coordinates":[-73.92091328708146,40.86252800981335]}},{"type":"Feature","properties":{"propname":"Willoughby Playground","name":"Willoughby Playground","system":"B348-CPA-0001","gispropnum":"B348","omppropid":"B348","notes":null},"geometry":{"type":"Point","coordinates":[-73.94681939475036,40.6944701534583]}},{"type":"Feature","properties":{"propname":"Crotona Park","name":"Playground Of The Stars","system":"X010-CPA-0008","gispropnum":"X010","omppropid":"X010-10","notes":null},"geometry":{"type":"Point","coordinates":[-73.90011726819046,40.835913464516004]}},{"type":"Feature","properties":{"propname":"John E. White Park","name":"John E. White Park","system":"R012-CPA-0001","gispropnum":"R012","omppropid":"R012","notes":null},"geometry":{"type":"Point","coordinates":[-74.06313632244424,40.60757982245967]}},{"type":"Feature","properties":{"propname":"Starlight Park","name":"Starlight Park Playground","system":"X147A-CPA-0001","gispropnum":"X147A","omppropid":"X147A-01","notes":null},"geometry":{"type":"Point","coordinates":[-73.8818929327801,40.83441607835233]}},{"type":"Feature","properties":{"propname":"Fox Park","name":"Fox Park","system":"X247-CPA-0001","gispropnum":"X247","omppropid":"X247","notes":null},"geometry":{"type":"Point","coordinates":[-73.89850306924305,40.81491001918083]}},{"type":"Feature","properties":{"propname":"Flushing Meadows Corona Park","name":"Playground For All Children","system":"Q099-CPA-0005","gispropnum":"Q099","omppropid":"Q099-18","notes":null},"geometry":{"type":"Point","coordinates":[-73.84931505539011,40.741145170193974]}},{"type":"Feature","properties":{"propname":"Alfred E. Smith Playground","name":"Alfred E. Smith Playground","system":"M194-CPA-0001","gispropnum":"M194","omppropid":"M194","notes":null},"geometry":{"type":"Point","coordinates":[-73.99742822657005,40.71062178640205]}},{"type":"Feature","properties":{"propname":"Sunrise Playground","name":"Sunrise Playground","system":"Q430-CPA-0001","gispropnum":"Q430","omppropid":"Q430","notes":null},"geometry":{"type":"Point","coordinates":[-73.73634759791528,40.65265686759344]}},{"type":"Feature","properties":{"propname":"Kennedy King Playground","name":"Kennedy King Playground","system":"B304-CPA-0001","gispropnum":"B304","omppropid":"B304","notes":null},"geometry":{"type":"Point","coordinates":[-73.92203240172427,40.65859608895743]}},{"type":"Feature","properties":{"propname":"Yolanda García Park","name":"Yolanda García Park","system":"X353-CPA-0001","gispropnum":"X353","omppropid":"X353","notes":null},"geometry":{"type":"Point","coordinates":[-73.91380830122466,40.823103920045256]}},{"type":"Feature","properties":{"propname":"Triborough Bridge Playground B","name":"Triborough Bridge Playground B","system":"Q066B-CPA-0001","gispropnum":"Q066B","omppropid":"Q066B","notes":null},"geometry":{"type":"Point","coordinates":[-73.92307114184791,40.77461889554158]}},{"type":"Feature","properties":{"propname":"Bayswater Park","name":"Bayswater Playground","system":"Q007-CPA-0001","gispropnum":"Q007","omppropid":"Q007-01","notes":null},"geometry":{"type":"Point","coordinates":[-73.76715646693214,40.59905926165316]}},{"type":"Feature","properties":{"propname":"Washington Square Park","name":"Washington Square Park","system":"M098-CPA-0002","gispropnum":"M098","omppropid":"M098-01","notes":null},"geometry":{"type":"Point","coordinates":[-73.99668595201406,40.73079758490365]}},{"type":"Feature","properties":{"propname":"Aesop Park","name":"Aesop Park","system":"R027A-CPA-0001","gispropnum":"R027A","omppropid":"R027A","notes":null},"geometry":{"type":"Point","coordinates":[-74.22989753003348,40.50955835111051]}},{"type":"Feature","properties":{"propname":"Washington Park","name":"Washington Park","system":"X280-CPA-0001","gispropnum":"X280","omppropid":"X280","notes":null},"geometry":{"type":"Point","coordinates":[-73.89361328837684,40.85575918514537]}},{"type":"Feature","properties":{"propname":"Agnes Haywood Playground","name":"Agnes Haywood Playground","system":"X169-CPA-0001","gispropnum":"X169","omppropid":"X169","notes":null},"geometry":{"type":"Point","coordinates":[-73.86181381588727,40.88029558958284]}},{"type":"Feature","properties":{"propname":"Bellerose Playground","name":"Bellerose Playground","system":"Q328-CPA-0001","gispropnum":"Q328","omppropid":"Q328","notes":null},"geometry":{"type":"Point","coordinates":[-73.71794860195071,40.73278191828499]}},{"type":"Feature","properties":{"propname":"Rock Garden Park","name":"Rock Garden Park","system":"X273-CPA-0001","gispropnum":"X273","omppropid":"X273","notes":null},"geometry":{"type":"Point","coordinates":[-73.88511447175848,40.83528197231139]}},{"type":"Feature","properties":{"propname":"Alley Pond Park","name":"Horatio Playground","system":"Q001-CPA-0002","gispropnum":"Q001","omppropid":"Q001-04","notes":null},"geometry":{"type":"Point","coordinates":[-73.75382868582551,40.75872018692642]}},{"type":"Feature","properties":{"propname":"Cobble Hill Park","name":"Cobble Hill Park","system":"B326-CPA-0001","gispropnum":"B326","omppropid":"B326","notes":null},"geometry":{"type":"Point","coordinates":[-73.9960137949438,40.68821155308715]}},{"type":"Feature","properties":{"propname":"The Pearly Gates","name":"The Pearly Gates","system":"X170-CPA-0001","gispropnum":"X170","omppropid":"X170","notes":null},"geometry":{"type":"Point","coordinates":[-73.84555786698402,40.838729792144676]}},{"type":"Feature","properties":{"propname":"Grand Playground","name":"Grand Playground","system":"X244-CPA-0001","gispropnum":"X244","omppropid":"X244","notes":null},"geometry":{"type":"Point","coordinates":[-73.90722951399988,40.8560315617354]}},{"type":"Feature","properties":{"propname":"The Battery","name":"Battery Park Zone 2","system":"M005-CPA-0002","gispropnum":"M005","omppropid":"M005-ZN02","notes":null},"geometry":{"type":"Point","coordinates":[-74.01636291908176,40.70285086148777]}},{"type":"Feature","properties":{"propname":"Judge Moses Weinstein Playground","name":"Judge Moses Weinstein Playground","system":"Q336-CPA-0001","gispropnum":"Q336","omppropid":"Q336","notes":null},"geometry":{"type":"Point","coordinates":[-73.82058528441814,40.71801826854053]}},{"type":"Feature","properties":{"propname":"Colonel David Marcus Playground","name":"Colonel David Marcus Playground","system":"B128-CPA-0001","gispropnum":"B128","omppropid":"B128","notes":null},"geometry":{"type":"Point","coordinates":[-73.96933663210044,40.60988005738718]}},{"type":"Feature","properties":{"propname":"Police Officer Edward Byrne Park","name":"Police Officer Edward Byrne Park","system":"Q092-CPA-0001","gispropnum":"Q092","omppropid":"Q092","notes":null},"geometry":{"type":"Point","coordinates":[-73.80744201033971,40.6673392003436]}},{"type":"Feature","properties":{"propname":"Rodney Playground Center","name":"Rodney Playground Center","system":"B223PD-CPA-0001","gispropnum":"B223PD","omppropid":"B223PD","notes":null},"geometry":{"type":"Point","coordinates":[-73.95557068381123,40.71025582991705]}},{"type":"Feature","properties":{"propname":"Holy Cow Playground","name":"Holy Cow Playground","system":"Q300A1-CPA-0001","gispropnum":"Q300A1","omppropid":"Q300A1","notes":null},"geometry":{"type":"Point","coordinates":[-73.77699979210865,40.741507587216034]}},{"type":"Feature","properties":{"propname":"Holcombe Rucker Park","name":"Holcombe Rucker Park","system":"M216-CPA-0001","gispropnum":"M216","omppropid":"M216","notes":null},"geometry":{"type":"Point","coordinates":[-73.93597351011627,40.82929407732162]}},{"type":"Feature","properties":{"propname":"Stars & Stripes Playground","name":"Stars & Stripes Playground","system":"X193-CPA-0001","gispropnum":"X193","omppropid":"X193","notes":null},"geometry":{"type":"Point","coordinates":[-73.83953906931207,40.8854253274686]}},{"type":"Feature","properties":{"propname":"Blue Heron Park","name":"Blue Heron Tot Lot","system":"R119-CPA-0001","gispropnum":"R119","omppropid":"R119-01","notes":null},"geometry":{"type":"Point","coordinates":[-74.17749082953192,40.53081145283095]}},{"type":"Feature","properties":{"propname":"Soundview Park","name":"Soundview Park","system":"X118-CPA-0001","gispropnum":"X118","omppropid":"X118-01","notes":null},"geometry":{"type":"Point","coordinates":[-73.87368958249526,40.81956806060459]}},{"type":"Feature","properties":{"propname":"Imagination Playground","name":"Imagination Playground","system":"M386-CPA-0001","gispropnum":"M386","omppropid":"M386","notes":null},"geometry":{"type":"Point","coordinates":[-74.0041032548107,40.70620366314473]}},{"type":"Feature","properties":{"propname":"Crispus Attucks Playground","name":"Crispus Attucks Playground","system":"B102-CPA-0001","gispropnum":"B102","omppropid":"B102","notes":null},"geometry":{"type":"Point","coordinates":[-73.95917367769616,40.68156817610936]}},{"type":"Feature","properties":{"propname":"Mafera Park","name":"Mafera Park","system":"Q305-CPA-0001","gispropnum":"Q305","omppropid":"Q305","notes":null},"geometry":{"type":"Point","coordinates":[-73.89123286923056,40.70721322603809]}},